Hospital Name,Beds,City,State,Estimated Ventilators,Statewide Ventilators per Bed,place name,place_id,address,lat,lon
Northside Behavioral Health Center,0,Tampa,FL,0.0,0.06904567242180862,Northside Mental Health Center,ChIJHa3_TKHHwogRGLd29ngepUA,"12512 Bruce B Downs Blvd, Tampa, FL 33612, United States",28.061524,-82.42737699999999
Adventist Health Saint Helena Center for Behavioral Health,61,Vallejo,CA,4.760612592978633,0.07804282939309233,Adventist Health St. Helena,ChIJGc0PrkhahIARoFCyKu1pyZI,"10 Woodland Rd, St Helena, CA 94574, United States",38.5425608,-122.4747622
Adventist Health Simi Valley,144,Simi Valley,CA,11.238167432605298,0.07804282939309233,Adventist Health Physicians Network Family Medicine,ChIJF_JqHj4p6IARhcVtQqwdL7o,"2750 Sycamore Dr #202, Simi Valley, CA 93065, United States",34.2854883,-118.7431652
Adventist Ukiah Valley,50,Ukiah,CA,3.902141469654617,0.07804282939309233,Adventist Health Ukiah Valley,ChIJgTyRmfpkgYAREkZBqaZnJU8,"275 Hospital Dr, Ukiah, CA 95482, United States",39.1533674,-123.2036242
Ascension Columbia Saint Mary's Hospital Ozaukee,120,Mequon,WI,6.831839746968899,0.05693199789140749,Ascension Columbia St. Mary's Hospital Ozaukee,ChIJT41w3ZnmBIgRKhfoj3Rv9mc,"13111 N Port Washington Rd, Mequon, WI 53097, United States",43.2565785,-87.92618859999999
Ascension Columbia Saint Mary's Women's Hospital,0,Milwaukee,WI,0.0,0.05693199789140749,Columbia St. Mary's Women's Hospital,ChIJJTn0dsEYBYgRVI6-zU_S2Q0,"2323 N Lake Dr, Milwaukee, WI 53211, United States",43.0615531,-87.8795932
Ascension Our Lady of Victory Hospital,24,Stanley,WI,1.3663679493937797,0.05693199789140749,Ascension Our Lady of Victory - Stanley,ChIJ-wtmUDFe_4cRXsTw7fFNJ8o,"1120 Pine St, Stanley, WI 54768, United States",44.95352980000001,-90.91885880000001
Ascension Saint John Hospital,612,Detroit,MI,40.11512527503727,0.06554759031868834,Ascension St. John Hospital,ChIJkawo0QTWJIgRK2SaNP_SV0Y,"22101 Moross Rd, Detroit, MI 48236, United States",42.4197915,-82.9149154
Ascension Saint Michael's Hospital,84,Stevens Point,WI,4.782287822878229,0.05693199789140749,Ascension St. Michael's Hospital,ChIJycyxZZRaAIgRrn3ihJbUFNs,"900 Illinois Ave, Stevens Point, WI 54481, United States",44.5268222,-89.5665679
Avera Dakota Plains Surgery Center,15,Aberdeen,SD,0.5370014416146084,0.03580009610764056,Avera Dakota Plains Surgical Center,ChIJPTQICKpF0lIRjKT6cOkWbNY,"701 8th Ave NW, Aberdeen, SD 57401, United States",45.4729385,-98.50025169999999
Baylor Scott & White Medical Center Plano,118,Plano,TX,8.4015503875969,0.07119957955590593,Baylor Scott & White Medical Center - Plano,ChIJD_uzw0wiTIYR9gVmCZxP2O4,"4700 Alliance Blvd, Plano, TX 75093, United States",33.0136238,-96.7910986
Baylor Scott & White Medical Center Grapevine,289,Grapevine,TX,20.576678491656814,0.07119957955590593,Baylor Scott & White Medical Center - Grapevine,ChIJ1a5P6tLUTYYRA8WJhQz9H5U,"1650 W College St, Grapevine, TX 76051, United States",32.9337522,-97.093764
Baylor Scott & White Medical Center Temple,634,Temple,TX,45.14053343844436,0.07119957955590593,Baylor Scott & White Medical Center - Temple,ChIJUcqln2hrRYYRPpydoI25afQ,"2401 S 31st St, Temple, TX 76508, United States",31.0779405,-97.3640532
Brockton Hospital,197,Brockton,MA,13.582215258055038,0.06894525511703066,Signature Healthcare Brockton Hospital,ChIJqZjBuzCb5IkRbCUK2oF9000,"680 Centre St, Brockton, MA 02302, United States",42.0877003,-70.9914661
California Department of State Hospitals - Coalinga,0,Coalinga,CA,0.0,0.07804282939309233,Coalinga State Hospital,ChIJ--3GB2ZZk4ARe2mJW1FhlTw,"24511 W Jayne Ave, Coalinga, CA 93210, United States",36.1335614,-120.2401099
California Department of State Hospitals - Napa,49,Napa,CA,3.824098640261525,0.07804282939309233,Department of State Hospitals - Napa,ChIJE0OA7gAGhYAR7pY1oapNGeI,"2100 Napa Vallejo Hwy, Napa, CA 94558, United States",38.2780746,-122.267857
California Department of State Hospitals Salinas Valley Hospital,0,Soledad,CA,0.0,0.07804282939309233,Salinas Valley Psychiatric Inpatient Program,ChIJDxbv_BZskoARBy0WKKi6vEI,"Soledad, CA 93960, United States",36.4767909,-121.3735778
Carle Richland Memorial Hospital,81,Olney,IL,5.493177216304253,0.06781700267042287,Carle Richland Memorial Hospital Orthopaedic Clinic,ChIJ5Q0R_pMucogRXrjevkeyK58,"800 E Locust St, Olney, IL 62450, United States",38.7369847,-88.0776968
Chester County Hospital,244,West Chester,PA,17.234498441053052,0.07063319033218464,Chester County Hospital,ChIJMTUwHVzxxokRiYpGbC65EYE,"701 E Marshall St, West Chester, PA 19380, United States",39.9716591,-75.6019109
CHI Memorial Hospital Chattanooga,423,Chattanooga,TN,29.87388268156425,0.07062383612662942,CHI Memorial Hospital Chattanooga: Emergency Room,ChIJtZspuLFgYIgRIq1sNXVsGoE,"2525 Desales Ave, Chattanooga, TN 37404, United States",35.0424162,-85.2593672
CHI Saint Anthony Hospital,25,Pendleton,OR,1.6822742474916392,0.06729096989966556,St. Anthony Hospital,ChIJpbvNIBvholQR4xNdEuUfxfw,"2801 St Anthony Way, Pendleton, OR 97801, United States",45.648805,-118.8121656
CHI Saint Joseph Health Continuing Care Hospital,23,Lexington,KY,1.3155927912723766,0.05719968657705985,"CHI Saint Joseph Health - Continuing Care, Saint Joseph Hospital",ChIJ_xFjP1hDQogR57YHWIyYsZc,"1 St Joseph Dr, Lexington, KY 40504, United States",38.0333938,-84.5246361
CHI St. Joseph Health Bellville Hospital,32,Bellville,TX,2.2783865457889902,0.07119957955590593,CHI St. Joseph Health Bellville Hospital: Emergency Room,ChIJjUwdNl1SQYYRZ3KJa8hkgjE,"44 N Cummings Rd, Bellville, TX 77418, United States",29.9534731,-96.2604532
CHRISTUS Good Shepherd Medical Center - Marshall,361,Marshall,TX,25.70304821968204,0.07119957955590593,CHRISTUS Good Shepherd Medical Center - Marshall,ChIJ5-wTHW_2NoYRKcPC9iNXANM,"811 S Washington Ave, Marshall, TX 75670, United States",32.536904,-94.36903919999999
CHRISTUS Good Shepherd Medical Center Longview,351,Longview,TX,24.991052424122984,0.07119957955590593,CHRISTUS Good Shepherd Medical Center - Longview,ChIJi4HhyYM4NoYRU8Z390rBwA8,"700 E Marshall Ave, Longview, TX 75601, United States",32.5008276,-94.7304434
Cuero Regional Hospital,44,Cuero,TX,3.132781500459861,0.07119957955590593,Cuero Community Hospital,ChIJ89DnXrzkQoYROOmixgODeOc,"2550 N Esplanade St, Cuero, TX 77954, United States",29.1126294,-97.28327019999999
Daniel Drake Center,211,Cincinnati,OH,16.255970865563768,0.07704251595053921,Daniel Drake Center for Post-Acute Care,ChIJ07GNO-dMQIgRCcl5e8vHnLc,"151 W Galbraith Rd, Cincinnati, OH 45216, United States",39.2124569,-84.4803001
Downey Medical Center,352,Downey,CA,27.471075946368504,0.07804282939309233,Kaiser Permanente Downey Medical Center,ChIJN7XOKG_NwoARCpoa8geHies,"9333 Imperial Hwy, Downey, CA 90242, United States",33.91901,-118.1281916
Emory Hillandale Hospital,90,Lithonia,GA,6.80330829240104,0.07559231436001156,Emory Hillandale Hospital,ChIJ99FXMlSs9YgR8f6ru3JZyEU,"2801 Dekalb Medical Pkwy, Lithonia, GA 30058, United States",33.7057547,-84.1479978
Encompass Health Rehabilitation Hospital of Miami,60,Miami,FL,4.142740345308518,0.06904567242180862,Encompass Health Rehabilitation Hospital of Miami,ChIJJfCk8vTE2YgRmXGBeiZWs5o,"20601 Old Cutler Rd, Miami, FL 33189, United States",25.57483,-80.34093
Encompass Health Rehabilitation Hospital of Ocala,60,Ocala,FL,4.142740345308518,0.06904567242180862,Encompass Health Rehabilitation Hospital of Ocala,ChIJS7wlcN3U54gRRv5p3CEhRAc,"2275 SW 22nd Ln, Ocala, FL 34471, United States",29.1657841,-82.16222049999999
Encompass Health Rehabilitation Hospital of Round Rock,75,Round Rock,TX,5.3399684666929454,0.07119957955590593,Encompass Health Rehabilitation Hospital of Round Rock,ChIJ05tQiAHORIYR8zS85tFNi3s,"1400 Hesters Crossing Rd, Round Rock, TX 78681, United States",30.4836198,-97.6935196
Encompass Health Rehabilitation Hospital of Sarasota,96,Sarasota,FL,6.628384552493628,0.06904567242180862,Encompass Health Rehabilitation Hospital of Sarasota,ChIJ91lCThxHw4gRqnY-ZgJTGr0,"6400 Edgelake Dr, Sarasota, FL 34240, United States",27.30081,-82.44261
Erlanger Western Carolina Hospital,25,Murphy,NC,1.6787881071711197,0.06715152428684479,Erlanger Western Carolina Hospital,ChIJr2jMg28nX4gRFTRQddxai3Y,"3990 E U.S. Highway 64 Alt, Murphy, NC 28906, United States",35.0725482,-83.96615419999999
Evans United States Army Hospital,0,Fort Carson,CO,0.0,0.07619762977800032,Evans Army Community Hospital,ChIJzzeRFWJCE4cR_jDrQ0kW3TQ,"1650 Cochrane Cir, Fort Carson, CO 80913, United States",38.718997,-104.7969049
Floyd Cherokee Medical Center,45,Centre,AL,2.3564232454892142,0.052364961010871416,Cherokee Medical Center,ChIJp3msAX1hiogRssvvCvFuSw8,"400 Northwood Dr, Centre, AL 35960, United States",34.1615289,-85.6508729
"Genesis Medical Center, East Rusholme Street",329,Davenport,IA,20.51046698872786,0.06234184495054061,"Genesis Medical Center, Davenport, East Rusholme Street | Laboratory",ChIJCQARr1004ocRcWQVz66IYEM,"1227 E Rusholme St, Davenport, IA 52803, United States",41.5416972,-90.55652219999999
HCA Houston Healthcare Kingwood,521,Kingwood,TX,37.09498094862699,0.07119957955590593,HCA Houston Healthcare Kingwood,ChIJ_3pgSMyyQIYRV7p3okbzut4,"22999 US-59 N, Kingwood, TX 77339, United States",30.0500672,-95.25481219999999
HCA Houston Healthcare Medical Center,133,Houston,TX,9.469544080935488,0.07119957955590593,HCA Houston Healthcare Medical Center,ChIJg9vDGSy_QIYRjB8yYaUqNKU,"1313 Hermann Dr, Houston, TX 77004, United States",29.723171,-95.38740709999999
Hospital General Menonita de Aibonito,150,Aibonito,PR,0.0,0.0,Hospital General Menonita de Aibonito,ChIJqXLzB0c2A4wRK--LErrdXBc,"100 Cll José C Vazquez, Aibonito, 00705, Puerto Rico",18.1433616,-66.2617823
INTEGRIS Miami Hospital,114,Miami,OK,6.696301000158756,0.05873948245753295,INTEGRIS Miami Hospital,ChIJ0zgbRewXyIcRtmDxEoYKXt8,"200 2nd Ave SW, Miami, OK 74354, United States",36.8730585,-94.8803484
Izard County Medical Center,25,Calico Rock,AR,1.45651173492867,0.0582604693971468,Izard County Medical Center,ChIJ9Xft4TyT0YcRI3u9H5xsSDM,"61 Grasse St, Calico Rock, AR 72519, United States",36.1266419,-92.1276097
LifeCare Hospitals of Pittsburgh at Main Campus,49,Pittsburgh,PA,3.4610263262770475,0.07063319033218464,Lifecare Hospitals of Pgh Inc,ChIJAwj5ptHtNIgRBnM_pRvDYO8,"225 Penn Ave, Pittsburgh, PA 15221, United States",40.4468129,-79.89194619999999
Long Island Community Hospital,235,Patchogue,NY,16.549606151537887,0.07042385596399099,Long Island Community Hospital,ChIJr6Vq1JZa6IkRbxIUdBXwyKw,"101 Hospital Rd, Patchogue, NY 11772, United States",40.7799905,-72.9772437
M Health Fairview Lakes Medical Center,55,Wyoming,MN,2.8025257602412665,0.050955013822568486,M Health Fairview Lakes Medical Center,ChIJYT0ApG7mslIR2lG_H-Q7Pok,"5200 Fairview Blvd, Wyoming, MN 55092, United States",45.321702,-93.0003869
MarinHealth Medical Center,235,Greenbrae,CA,18.3400649073767,0.07804282939309233,MarinHealth Medical Center,ChIJ3_G2wQqahYARPwamIE2b644,"250 Bon Air Rd, Greenbrae, CA 94904, United States",37.9473152,-122.5360306
Medical City North Hills,157,North Richland Hills,TX,11.178333990277233,0.07119957955590593,Medical City North Hills,ChIJV-eO_Px4ToYRGqW1vKd989k,"4401 Booth Calloway Rd, North Richland Hills, TX 76180, United States",32.8289781,-97.21339309999999
Mercy Health - Anderson Hospital,282,Cincinnati,OH,21.72598949805206,0.07704251595053921,Mercy Health - Anderson Hospital,ChIJrb-LA0ypQYgR3duJvP6Bpts,"7500 State Rd, Cincinnati, OH 45255, United States",39.0855512,-84.34881779999999
Mercyhealth Hospital and Medical Center-Harvard,28,Harvard,IL,1.8988760747718405,0.06781700267042287,Mercyhealth Hospital and Medical Center–Harvard,ChIJka2MjFhaD4gRGB7JRg1WjH4,"901 Grant St, Harvard, IL 60033, United States",42.4263413,-88.6070179
Munson Healthcare Manistee Hospital,45,Manistee,MI,2.9496415643409755,0.06554759031868834,Munson Healthcare Manistee Hospital: Emergency Room,ChIJtZLPSRgqHIgRfxmq42yFm7w,"1465 E Parkdale Ave, Manistee, MI 49660, United States",44.27112049999999,-86.2749102
MUSC Institute of Psychiatry,0,Charleston,SC,0.0,0.07041104021368155,MUSC Institute of Psychiatry,ChIJbaZFhzh6_ogRHeiaWZa9gtQ,"67 President St, Charleston, SC 29425, United States",32.78494209999999,-79.94978259999999
Northwest Health Physicians' Specialty Hospital,20,Fayetteville,AR,1.1652093879429362,0.0582604693971468,Northwest Health Physicians' Specialty Hospital,ChIJs-4wfelryYcRxVcwRFBDGJg,"3873 Parkview Dr, Fayetteville, AR 72703, United States",36.1214404,-94.1341326
Northwestern Medicine Kishwaukee Hospital,98,DeKalb,IL,6.646066261701441,0.06781700267042287,Northwestern Medicine Kishwaukee Hospital,ChIJAQDQF5UqD4gROi0WCltOUmw,"1 Kish Hospital Dr, DeKalb, IL 60115, United States",41.9613282,-88.7224268
Palisades Medical Center,202,North Bergen,NJ,12.042416710099024,0.05961592430742092,Hackensack Meridian Health Palisades Medical Center,ChIJX1cBnXdYwokRMtZoy6JJx_Q,"7600 River Rd, North Bergen, NJ 07047, United States",40.7938889,-73.9958333
Pappas Rehabilitation Hospital for Children,0,Canton,MA,0.0,0.06894525511703066,Pappas Rehabilitation Hospital for Children,ChIJf8Fp56CB5IkRDO-ULLH3GY8,"3 Randolph St, Canton, MA 02021, United States",42.1759271,-71.1252413
Providence Holy Family Hospital,184,Spokane,WA,11.384251036116044,0.06187092954410895,Providence Holy Family Hospital - Spokane,ChIJeYSyuUsZnlQRNVwTYeHjHII,"5633 N Lidgerwood St, Spokane, WA 99208, United States",47.709683,-117.4070645
Providence Saint John's Health Center,266,Santa Monica,CA,20.75939261856257,0.07804282939309233,Providence Saint John's Health Center - Santa Monica Emergency Room,ChIJDcsPk0m7woARMLKEsvcRqWc,"2121 Santa Monica Blvd 1st Floor, Santa Monica, CA 90404, United States",34.0307921,-118.4796472
Providence Saint Joseph Medical Center,22,Polson,MT,0.8480117101732131,0.03854598682605514,Providence St. Joseph Medical Center - Polson,ChIJ-YULSexzZ1MRyoT3q13FoJU,"6 13th Ave E, Polson, MT 59860, United States",47.6822197,-114.1624467
Reading Hospital,724,West Reading,PA,51.13842980050168,0.07063319033218464,Reading Hospital,ChIJq6p6nyhxxokR5-i-RrWnjGk,"371-399 S 7th Ave, West Reading, PA 19611, United States",40.3301486,-75.9506332
Rehabilitation Hospital of Bristol,25,Bristol,VA,1.6610220141448349,0.0664408805657934,The Rehabilitation Hospital of Southwest Virginia,ChIJNV1b1vWdWogRg1k-kaUYh9c,"103 North St, Bristol, VA 24201, United States",36.5970965,-82.2168085
RMC Stringfellow Memorial Hospital,125,Anniston,AL,6.545620126358927,0.052364961010871416,Stringfellow Memorial Hospital,ChIJDQi2-byzi4gR68YrRRmcoiw,"301 E 18th St, Anniston, AL 36207, United States",33.6682403,-85.8235966
Rocky Mountain Regional VA Medical Center,0,Aurora,CO,0.0,0.07619762977800032,Rocky Mountain Regional VA Medical Center,ChIJAQBArB18bIcRvZyKBegOCB8,"1700 N Wheeling St, Aurora, CO 80045, United States",39.7448593,-104.8304519
Santa Fe Indian Hospital,4,Santa Fe,NM,0.3022295623451693,0.07555739058629232,Santa Fe Indian Hospital,ChIJ86C94IFaGIcRcNKLD6LFcfo,"1700 Cerrillos Rd, Santa Fe, NM 87505, United States",35.6681549,-105.9702698
Spectrum Health Zeeland Community Hospital,55,Zeeland,MI,3.6051174675278586,0.06554759031868834,Spectrum Health Zeeland Community Hospital,ChIJh0jPxu2UGYgRzPS_rQ4Q6Qw,"8333 Felch St, Zeeland, MI 49464, United States",42.82139799999999,-85.9878267
St. Joseph's Healthcare and Rehab Center,0,Cedar Grove,NJ,0.0,0.05961592430742092,St. Joseph’s Healthcare and Rehab Center,ChIJq6qqqp3-wokRT6BDgAxO5QA,"315 E Lindsley Rd, Cedar Grove, NJ 07009, United States",40.8696817,-74.22447489999999
Texas Health Presbyterian Hospital of Rockwall,53,Rockwall,TX,3.7735777164630138,0.07119957955590593,Texas Health Presbyterian Hospital Rockwall,ChIJ96I8u0OqToYR91Qgh9fxnms,"3150 Horizon Rd, Rockwall, TX 75032, United States",32.8843477,-96.46626889999999
The University of Texas Medical Branch Health Angleton Danbury Campus,62,Angleton,TX,4.414373932466168,0.07119957955590593,UTMB Health Angleton Danbury Campus,ChIJa_OQKZBdQIYR2nG3t7mKqLk,"132 E Hospital Dr, Angleton, TX 77515, United States",29.1841562,-95.4044298
Unity Health - Harris Medical Center,121,Newport,AR,7.049516797054763,0.0582604693971468,Unity Health - Harris Medical Center,ChIJAQAA_1v004cR-8PtowBF2VQ,"1205 McLain St, Newport, AR 72112, United States",35.6084218,-91.2647442
University of Kansas Health System Saint Francis Campus,264,Topeka,KS,14.313924050632913,0.05421940928270042,The University of Kansas Health System St. Francis Campus,ChIJqfjdbvgCv4cRALz-rjjkl38,"1700 SW 7th St, Topeka, KS 66606, United States",39.0560566,-95.6961025
University of Missouri Women's and Children's Hospital,98,Columbia,MO,6.834886429819451,0.06974373907979033,Women's and Children's Hospital,ChIJsfst6Lu33IcROIGgioASNJ4,"404 N Keene St, Columbia, MO 65201, United States",38.9571318,-92.28898620000001
UPMC Cole,69,Coudersport,PA,4.87369013292074,0.07063319033218464,UPMC Cole,ChIJVwWiqdD8zYkRjzluOpYlAB8,"1001 E 2nd St, Coudersport, PA 16915, United States",41.7719137,-77.97980969999999
UPMC Hamot,421,Erie,PA,29.73657312984973,0.07063319033218464,UPMC Hamot,ChIJEQN7Le5_LYgRY9MZg7ZdL8g,"104 E 2nd St #5, Erie, PA 16507, United States",42.1340429,-80.08628540000001
UPMC Lititz,55,Lititz,PA,3.8848254682701553,0.07063319033218464,UPMC Lititz,ChIJt36PtogixokRgGnwsEwzKc8,"1500 Highlands Dr, Lititz, PA 17543, United States",40.1317239,-76.3116369
UPMC Magee-Womens Hospital,335,Pittsburgh,PA,23.662118761281853,0.07063319033218464,UPMC Magee-Womens Hospital,ChIJUb8HoadiNIgRxPmnicQm9ak,"300 Halket St, Pittsburgh, PA 15213, United States",40.4369808,-79.9607441
UT Health East Texas Rehabilitation Hospital,49,Tyler,TX,3.4887793982393904,0.07119957955590593,UT Health East Texas Rehabilitation Center,ChIJNypf-wXPSYYRxf0TFSXaFjc,"701 Olympic Plaza Circle, Tyler, TX 75701, United States",32.3369843,-95.29203659999999
VA Pittsburgh Healthcare System - H.J. Heinz Campus,0,Pittsburgh,PA,0.0,0.07063319033218464,VA Hospital H J Heinz Campus,ChIJUcqdYj3tNIgRFPdotR9QURs,"1010 Delafield Rd, Pittsburgh, PA 15215, United States",40.4942326,-79.8884789
VCU Community Memorial Hospital,206,South Hill,VA,13.68682139655344,0.0664408805657934,VCU Health Community Memorial Hospital,ChIJtfIKAGgIsokRpQ1ctVOlid8,"1755 N Mecklenburg Ave, La Crosse, VA 23950, United States",36.7503981,-78.1055573
West Tennessee Healthcare Rehabilitation Hospital Jackson,48,Jackson,TN,3.3899441340782124,0.07062383612662942,"West Tennessee Healthcare Rehabilitation Hospital Jackson, a partnership with Encompass Health",ChIJORbusyehfogR5B02ra40aUQ,"616 W Forest Ave, Jackson, TN 38301, United States",35.6350042,-88.8283165
Woodland Hills Medical Center,252,Woodland Hills,CA,19.666793007059272,0.07804282939309233,Kaiser Permanente Woodland Hills Medical Center,ChIJw2ldxrCewoARQnTV2MCXIR0,"5601 De Soto Ave, Woodland Hills, CA 91367, United States",34.1712375,-118.5902044
Zucker Hillside Hospital,0,Glen Oaks,NY,0.0,0.07042385596399099,Zucker Hillside Hospital,ChIJ61vGDXpiwokRQqskjyklcRw,"75-59 263rd St, Queens, NY 11004, United States",40.7517757,-73.7108377
375th Medical Group - Scott Air Force Base Medical Center,0,Scott Air Force Base,IL,0.0,0.06781700267042287,375 Medical Group,ChIJFS1LYL4FdogR3F57Bdk2TLU,"310 W Losey St, Scott AFB, IL 62225, United States",38.543526,-89.87197160000001
60th Medical Group - David Grant USAF Medical Center,0,Travis Air Force Base,CA,0.0,0.07804282939309233,David Grant USAF Medical Center,ChIJHxCr3kM-hYARMb7VuOJFcz4,"101 Bodin Cir, Fairfield, CA 94533, United States",38.2699948,-121.9637079
633d Medical Group -Langley Air Force Base,0,Hampton,VA,0.0,0.0664408805657934,Langley AFB Hospital,ChIJEbWjzHaEuokRkrymPowg5LY,"Langley Air Force Base, 77 Nealy Ave, Hampton, VA 23665, United States",37.0738311,-76.3580187
81st Medical Group - Keesler Medical Center,0,Keesler Air Force Base,MS,0.0,0.06544123904348566,Keesler Medical Center,ChIJq9BTXGYOnIgRQc0oIhsLz3Q,"500 Fisher St, Biloxi, MS 39534, United States",30.4123154,-88.9106724
88th Medical Group - Wright-Patterson Air Force Base Medical Center,0,Wright-Patterson AirForce Base,OH,0.0,0.07704251595053921,Wright-Patterson Medical Center,ChIJAQAAAJydQIgR7Icr65BeXGg,"4881 Sugar Maple Dr, Wright-Patterson AFB, OH 45433, United States",39.80522759999999,-84.0370421
96th Medical Group - United States Air Force Eglin Regional Hospital,0,Eglin Air Force Base,FL,0.0,0.06904567242180862,96th Medical Group,ChIJKZLnsk1AkYgRfb5XDShR8Fo,"307 Boatner Rd, Eglin AFB, FL 32542, United States",30.450546,-86.5433477
A.O. Fox Hospital,191,Oneonta,NY,13.450956489122278,0.07042385596399099,Bassett Healthcare Network A.O. Fox Hospital,ChIJhQJBnYOL24kR67upfw1h2po,"1 Norton Ave, Oneonta, NY 13820, United States",42.4578897,-75.05229159999999
Abbeville Area Medical Center,25,Abbeville,SC,1.7602760053420388,0.07041104021368155,Abbeville Area Medical Center,ChIJX-I3Cjb794gRl9Jl5OEE4xc,"420 Thomson Cir, Abbeville, SC 29620, United States",34.1576213,-82.381591
Abbeville General Hospital,60,Abbeville,LA,3.3786940184827867,0.05631156697471311,Abbeville General Hospital,ChIJ2WADicxnI4YRzjb0z3UfpBA,"118 N Hospital Dr, Abbeville, LA 70510, United States",29.97363709999999,-92.1080341
Abbott Northwestern Hospital,686,Minneapolis,MN,34.95513948228198,0.050955013822568486,Abbott Northwestern Hospital,ChIJp5pK-6oys1IRm0KMXmZNRno,"800 E 28th St, Minneapolis, MN 55407, United States",44.9540802,-93.2615615
Abilene Regional Medical Center,196,Abilene,TX,13.955117592957563,0.07119957955590593,Abilene Regional Medical Center,ChIJgUL1UA2NVoYRQpeqqE2wJAk,"6250 US-83, Abilene, TX 79606, United States",32.3746583,-99.744019
Abington - Lansdale Hospital,140,Lansdale,PA,9.88864664650585,0.07063319033218464,Abington - Lansdale Hospital - Jefferson Health,ChIJs50JId6jxokRcoAq5PzctBs,"100 Medical Campus Dr, Lansdale, PA 19446, United States",40.2504291,-75.2714862
Abington Hospital - Jefferson Health,638,Abington,PA,45.06397543193379,0.07063319033218464,Abington Hospital - Jefferson Health,ChIJQWadklCwxokRzB2oW-vqCEQ,"1200 Old York Rd, Abington, PA 19001, United States",40.1190688,-75.11990639999999
Abraham Lincoln Memorial Hospital,25,Lincoln,IL,1.6954250667605717,0.06781700267042287,Abraham Lincoln Memorial Hospital,ChIJyee8FdonC4gRLoOGJcblgrw,"200 Stahlhut Dr, Lincoln, IL 62656, United States",40.1536794,-89.3898416
Abrazo Arizona Heart Hospital,0,Phoenix,AZ,0.0,0.0800122249388753,Abrazo Arizona Heart Hospital,ChIJUboBaY8NK4cRbr1hU0jXf28,"1930 E Thomas Rd, Phoenix, AZ 85016, United States",33.48102,-112.0396914
Abrazo Arrowhead Hospital,262,Glendale,AZ,20.96320293398533,0.0800122249388753,Abrazo Arrowhead Hospital,ChIJR3r8eGdoK4cR7lsJe3VpCM4,"18701 N 67th Ave, Glendale, AZ 85308, United States",33.6545091,-112.2014811
Abrazo Central Campus,160,Phoenix,AZ,12.801955990220046,0.0800122249388753,Abrazo Central Campus,ChIJiQ50XdNsK4cRqnNOM1rQ5DA,"2000 W Bethany Home Rd, Phoenix, AZ 85015, United States",33.5250095,-112.102
Abrazo Mesa Hospital,0,Mesa,AZ,0.0,0.0800122249388753,Abrazo Mesa Hospital,ChIJVftB5_OvK4cRhco3ifowtzg,"5750 E Baseline Rd, Mesa, AZ 85206, United States",33.3794111,-111.70877
Abrazo Scottsdale Campus,127,Phoenix,AZ,10.161552567237164,0.0800122249388753,Abrazo Scottsdale Campus,ChIJD5m5hndxK4cRMNxDBS82XWI,"3929 E Bell Rd, Phoenix, AZ 85032, United States",33.6393068,-111.9979775
Abrazo West Campus,179,Goodyear,AZ,14.322188264058681,0.0800122249388753,Abrazo West Campus,ChIJ_3qLcbw4K4cRVt9rvBJ74g4,"13677 W McDowell Rd, Goodyear, AZ 85395, United States",33.4625907,-112.3520988
Abrom Kaplan Memorial Hospital,35,Kaplan,LA,1.9709048441149588,0.05631156697471311,Abrom Kaplan Memorial Hospital,ChIJ2Q6263taI4YRUGJU6ESlWwI,"1310 W 7th St, Kaplan, LA 70548, United States",30.008074,-92.297071
Acadia Extended Care Hospital,0,Crowley,LA,0.0,0.05631156697471311,Acadia Extended Care Hospital,ChIJV-x86gW2JIYR9Ge2Ufl4urg,"1305 Crowley Rayne Hwy 2nd floor, Crowley, LA 70526, United States",30.2260268,-92.3635786
Acadia General Hospital,140,Crowley,LA,7.883619376459834,0.05631156697471311,Acadia General Hospital,ChIJt2heUEqpJIYRrqZT1yQgocE,"1305 Crowley Rayne Hwy, Crowley, LA 70526, United States",30.2260219,-92.3633674
Acadia-Saint Landry Hospital,25,Church Point,LA,1.4077891743678277,0.05631156697471311,Acadia St. Landry Hospital,ChIJ7_M0IBO8JIYRN03aHc1Fhz4,"810 S Broadway St, Church Point, LA 70525, United States",30.3955347,-92.2110636
Acadian Medical Center,52,Eunice,LA,2.9282014826850817,0.05631156697471311,Acadian Medical Center,ChIJFxb8m_y1JIYRO-2xw1SEKZs,"3501 US-190, Eunice, LA 70535, United States",30.4966648,-92.386265
Accel Rehabilitation Hospital of Plano,149,Plano,TX,10.608737353829985,0.07119957955590593,Accel Rehab Hosp. of Plano,ChIJNYPOg4wkTIYRyj8-C9H_URg,"2301 Marsh Ln STE 200, Plano, TX 75093, United States",33.0315319,-96.8541169
Access Hospital Dayton,52,Dayton,OH,4.006210829428039,0.07704251595053921,Access Hospital Dayton,ChIJWaLlBGaEQIgR-JL2kbm4h00,"2611 Wayne Ave, Dayton, OH 45420, United States",39.735918,-84.154249
Acoma-Canoncito-Laguna Hospital,6,Acoma,NM,0.4533443435177539,0.07555739058629232,Acoma-Canoncito-Laguna Hospital-Urgent Care,ChIJ3Tk1cPa7I4cR2oeogKYQ_WY,"80 Veterans Blvd, Acoma Pueblo, NM 87034, United States",35.0682101,-107.5715964
Acuity Specialty Hospital of Morgantown,0,Morgantown,WV,0.0,0.07327471356248334,Acuity Specialty Hospital of Morgantown,ChIJaWc0NKh7NYgROeXnETkYd4I,"1200 J D Anderson Dr 4th flr, Morgantown, WV 26505, United States",39.663925,-79.94674909999999
Acuity Specialty Hospital of New Jersey - Atlantic City,30,Atlantic City,NJ,1.7884777292226277,0.05961592430742092,Acuity Specialty Hospital of New Jersey,ChIJR9FD_EHuwIkRfFDcKF0taeM,"1925 Pacific Ave, Atlantic City, NJ 08401, United States",39.3585111,-74.434248
Acuity Specialty Hospital of Ohio Valley,72,Belmont,OH,5.547061148438823,0.07704251595053921,Acuity Specialty Hospital of Ohio Valley - Weirton,ChIJO9nGYkQ3NIgRaoeaZXz8Lp0,"601 Colliers Way, Weirton, WV 26062, United States",40.3933701,-80.5273042
Acuity Specialty Hospital of Ohio Valley at Weirton,0,Weirton,WV,0.0,0.07327471356248334,Acuity Specialty Hospital of Ohio Valley - Weirton,ChIJO9nGYkQ3NIgRaoeaZXz8Lp0,"601 Colliers Way, Weirton, WV 26062, United States",40.3933701,-80.5273042
Acuity Specialty Hospital of Ohio Valley at Wheeling,0,Wheeling,WV,0.0,0.07327471356248334,Acuity Specialty Hospital of Ohio Valley at Wheeling,ChIJuSVlrFPaNYgRsdY5FhNPY9k,"1 Medical Park, Wheeling, WV 26003, United States",40.0588459,-80.68504659999999
Acuity Specialty Hospital of Southern New Jersey,69,Willingboro,NJ,4.113498777212044,0.05961592430742092,Acuity Specialty Hospital of Southern New Jersey,ChIJ4bDKDutNwYkRXJljg8MIyxU,"218 Sunset Rd, Willingboro, NJ 08046, United States",40.045559,-74.8805497
Adair County Memorial Hospital,25,Greenfield,IA,1.5585461237635152,0.06234184495054061,Adair County Health System,ChIJyYQEru-G7IcRIVKXnYvP-XM,"609 SE Kent St, Greenfield, IA 50849, United States",41.3038214,-94.4519627
Adams County Regional Medical Center,25,Seaman,OH,1.92606289876348,0.07704251595053921,Adams County Regional Medical Center - Hospital,ChIJ1_uwVdbMRogRVVgZ3hiG9IQ,"230 Medical Center Dr, Seaman, OH 45679, United States",38.9339508,-83.5846602
Adams Memorial Hospital,25,Decatur,IN,1.904367625750362,0.07617470503001449,Adams Memorial Hospital,ChIJn3DbUlsgPogRu8TbEcKoWK4,"1100 Mercer Ave, Decatur, IN 46733, United States",40.8163638,-84.9142634
AdCare Hospital,114,Worcester,MA,7.859759083341495,0.06894525511703066,AdCare Hospital,ChIJG1F8dk8G5IkRQ-E8LSlhsac,"107 Lincoln St, Worcester, MA 01605, United States",42.2765762,-71.79504890000001
AdCare Rhode Island,0,North Kingstown,RI,0.0,0.0623409669211196,AdCare Rhode Island,ChIJH2Sr-MSw5YkRxl4z5jAQmBw,"1950 Tower Hill Rd, North Kingstown, RI 02852, United States",41.526874,-71.46221000000001
Addison Gilbert Hospital,79,Gloucester,MA,5.446675154245422,0.06894525511703066,Addison Gilbert Hospital,ChIJzev7zfkk44kRu2BnOGutrWI,"298 Washington St, Gloucester, MA 01930, United States",42.6254201,-70.6807896
Adena Greenfield Medical Center,25,Greenfield,OH,1.92606289876348,0.07704251595053921,Adena Greenfield Medical Center,ChIJA5GsRVA6R4gReT156wAEh18,"550 Mirabeau St, Greenfield, OH 45123, United States",39.3486827,-83.3876789
Adena Pike Medical Center,25,Waverly,OH,1.92606289876348,0.07704251595053921,Adena Pike Medical Center,ChIJE0k_qwgCR4gRdkxrKF_DIoY,"100 Dawn Ln, Waverly, OH 45690, United States",39.116438,-83.004066
Adena Regional Medical Center,189,Chillicothe,OH,14.56103551465191,0.07704251595053921,Adena Regional Medical Center,ChIJLUDxvKELR4gR0GILrn9TPUM,"272 Hospital Rd, Chillicothe, OH 45601, United States",39.3968064,-82.9685313
Adirondack Medical Center at Saranac Lake,155,Saranac Lake,NY,10.915697674418604,0.07042385596399099,Adirondack Medical Center,ChIJ-z4jKzYFy0wRBhlRkJMsTx0,"2233 NY-86, Saranac Lake, NY 12983, United States",44.34551949999999,-74.14346689999999
Administrative Medical Services,68,San Juan,PR,0.0,0.0,Molina Healthcare of Puerto Rico Administrative Office,ChIJWSMXFppoA4wRVHCrKzr0loo,"654 Av. Luis Muñoz Rivera, San Juan, 00918, Puerto Rico",18.4084266,-66.0570409
Advanced Care Hospital of Montana,40,Billings,MT,1.5418394730422056,0.03854598682605514,Advanced Care Hospital of Montana,ChIJs2TGxrhiSFMRK8UBbW05K3c,"3528 Gabel Rd, Billings, MT 59102, United States",45.74317629999999,-108.6044456
Advanced Care Hospital of Southern New Mexico,20,Las Cruces,NM,1.5111478117258463,0.07555739058629232,Advanced Care Hospital of Southern New Mexico,ChIJB_ScNOs93oYROwqY1Y2XWg4,"4451 E Lohman Ave, Las Cruces, NM 88011, United States",32.3260692,-106.7250303
Advanced Care Hospital of White County,27,Searcy,AR,1.5730326737229636,0.0582604693971468,Advanced Care Hospital of White County,ChIJkcw94Lyp04cRWYotTqbMLKw,"1200 S Main St, Searcy, AR 72143, United States",35.2339202,-91.73200419999999
Advanced Diagnostics Hospitals and Clinics,4,Houston,TX,0.2847983182236237,0.07119957955590593,Advanced Diagnostic Hospital & Clinic,ChIJP8qZJlGjQIYR8VLiszDyMuI,"12950 East Fwy, Houston, TX 77015, United States",29.7706303,-95.2003443
Advanced Specialty Hospital of Toledo,40,Toledo,OH,3.081700638021569,0.07704251595053921,Advanced Specialty Hospitals of Toledo,ChIJ97BvF354PIgRM-ttPQeYoVY,"1015 Garden Lake Pkwy, Toledo, OH 43614, United States",41.6203186,-83.5961607
Advanced Surgical Hospital,14,Washington,PA,0.9888646646505849,0.07063319033218464,Advanced Surgical Hospital,ChIJobxVbAiyNYgRT5LASKNwQro,"100 Trich Dr STE 1, Washington, PA 15301, United States",40.1565668,-80.2792557
AdventHealth Altamonte Springs,0,Altamonte Springs,FL,0.0,0.06904567242180862,AdventHealth Altamonte Springs,ChIJCRMzrJFx54gRwc0anrbRE_M,"601 E Altamonte Dr, Altamonte Springs, FL 32701, United States",28.6656867,-81.3695841
AdventHealth Apopka,0,Apopka,FL,0.0,0.06904567242180862,AdventHealth Apopka,ChIJq6o2Oed154gRbhiLCn_vVqw,"2100 Ocoee Apopka Rd, Apopka, FL 32703, United States",28.6492298,-81.54027289999999
AdventHealth Carrollwood,103,Tampa,FL,7.111704259446287,0.06904567242180862,AdventHealth Carrollwood,ChIJ9U89dW_BwogRGqOXl8aUwgQ,"7171 N Dale Mabry Hwy, Tampa, FL 33614, United States",28.0132277,-82.5036559
AdventHealth Celebration,0,Celebration,FL,0.0,0.06904567242180862,AdventHealth Celebration,ChIJywhIZDd_3YgR0kVlmGDD_OI,"400 Celebration Pl, Celebration, FL 34747, United States",28.3286589,-81.5413877
AdventHealth Central Texas,208,Killeen,TX,14.809512547628431,0.07119957955590593,AdventHealth Central Texas,ChIJS9J0uqa0WoYRaNleOYb8Yik,"2201 S Clear Creek Rd, Killeen, TX 76549, United States",31.113534,-97.8013457
AdventHealth Connerton,50,Land O Lakes,FL,3.452283621090431,0.06904567242180862,AdventHealth Connerton,ChIJe7miQ0SjwogRZI66-Iyr3Qw,"9441 Health Center Dr, Land O' Lakes, FL 34637, United States",28.2952536,-82.4899726
AdventHealth Dade City,120,Dade City,FL,8.285480690617035,0.06904567242180862,AdventHealth Dade City,ChIJWc8K2pWkiogRO6N21fU5-J0,"13100 Fort King Rd, Dade City, FL 33525, United States",28.3481235,-82.2005952
AdventHealth Daytona Beach,0,Daytona Beach,FL,0.0,0.06904567242180862,AdventHealth Daytona Beach,ChIJj0puvEXc5ogRRxP29EtEtwI,"301 Memorial Medical Pkwy, Daytona Beach, FL 32117, United States",29.2437907,-81.10823859999999
AdventHealth DeLand,164,DeLand,FL,11.323490277176615,0.06904567242180862,AdventHealth DeLand,ChIJqWbyPmAb54gR0ihsTMXH7p8,"701 W Plymouth Ave, DeLand, FL 32720, United States",29.0437213,-81.3179244
AdventHealth Durand,25,Durand,WI,1.4232999472851873,0.05693199789140749,AdventHealth Durand,ChIJK3OYM5Fc-IcRrY7dnDiNJgs,"1220 3rd Ave W, Durand, WI 54736, United States",44.6205552,-91.9627501
AdventHealth East Orlando,0,Orlando,FL,0.0,0.06904567242180862,AdventHealth East Orlando,ChIJbU_SKLFl54gR00glZ_0mE74,"7727 Lake Underhill Rd, Orlando, FL 32822, United States",28.5403086,-81.28061269999999
AdventHealth Fish Memorial,179,Orange City,FL,12.359175363503745,0.06904567242180862,AdventHealth Fish Memorial ER,ChIJ3XXurvoQ54gRfo3ss2sHabY,"1055 Saxon Blvd, Orange City, FL 32763, United States",28.9146296,-81.2854606
AdventHealth Gordon,69,Calhoun,GA,5.2158696908407975,0.07559231436001156,AdventHealth Gordon,ChIJfVjpjer9X4gRGK7NwGG_tbg,"1035 Red Bud Rd NE, Calhoun, GA 30701, United States",34.510132,-84.9256638
AdventHealth Heart of Florida,193,Davenport,FL,13.325814777409065,0.06904567242180862,AdventHealth Heart of Florida ER,ChIJMwY-fwFx3YgRDwQvCzBmkYE,"40100 US-27, Davenport, FL 33837, United States",28.1814929,-81.6418777
AdventHealth Hendersonville,98,Hendersonville,NC,6.58084938011079,0.06715152428684479,AdventHealth Hendersonville,ChIJ-wrS_MTrWYgRjH1nXEPreEM,"100 Hospital Dr, Hendersonville, NC 28792, United States",35.3896801,-82.48813299999999
AdventHealth Kissimmee,0,Kissimmee,FL,0.0,0.06904567242180862,AdventHealth Kissimmee,ChIJx6qWmZiG3YgRbq-VUMZNu5E,"2450 N Orange Blossom Trail, Kissimmee, FL 34744, United States",28.3170667,-81.4057935
AdventHealth Lake Placid,0,Lake Placid,FL,0.0,0.06904567242180862,AdventHealth Lake Placid,ChIJ2SwITxpd3IgR3KRx5Fbv4vA,"1210 US Highway 27 North, Lake Placid, FL 33852, United States",27.3202253,-81.36943839999999
AdventHealth Lake Wales,131,Lake Wales,FL,9.044983087256927,0.06904567242180862,AdventHealth Lake Wales,ChIJN8D0HPwI3YgR2AjnYY9FE1w,"410 S 11th St, Lake Wales, FL 33853, United States",27.8966144,-81.565241
AdventHealth Manchester,49,Manchester,KY,2.802784642275933,0.05719968657705985,AdventHealth Manchester,ChIJXzTdjp1SQ4gRTzZVc4Ks6wg,"210 Marie Langdon Dr, Manchester, KY 40962, United States",37.162122,-83.7620857
AdventHealth Murray,29,Chatsworth,GA,2.1921771164403347,0.07559231436001156,AdventHealth Murray,ChIJ-U0scjndX4gRG-FoXnNaHI4,"707 Old Dalton Ellijay Rd, Chatsworth, GA 30705, United States",34.7802452,-84.78312629999999
AdventHealth New Smyrna Beach,112,New Smyrna Beach,FL,7.733115311242566,0.06904567242180862,AdventHealth New Smyrna Beach,ChIJ69GbdTUp54gRmJcMTh8WFz4,"401 Palmetto St, New Smyrna Beach, FL 32168, United States",29.0205187,-80.92185889999999
AdventHealth North Pinellas,168,Tarpon Springs,FL,11.599672966863848,0.06904567242180862,AdventHealth North Pinellas,ChIJB21zDRWNwogR6Z7xQzG6eLA,"1395 S Pinellas Ave, Tarpon Springs, FL 34689, United States",28.1324509,-82.7579555
AdventHealth Ocala,413,Ocala,FL,28.51586271020696,0.06904567242180862,AdventHealth Ocala,ChIJq0nXUqXU54gRVyGz_DXss_Y,"1500 SW 1st Ave, Ocala, FL 34471, United States",29.1753462,-82.13872740000001
AdventHealth Orlando,2826,Orlando,FL,195.12307026403118,0.06904567242180862,AdventHealth Orlando,ChIJkezOtZt654gRuY2sglU1KyQ,"601 E Rollins St, Orlando, FL 32803, United States",28.5746413,-81.37060799999999
AdventHealth Ottawa,47,Ottawa,KS,2.54831223628692,0.05421940928270042,AdventHealth Ottawa,ChIJwYVtQbVNv4cRTaNv7IB3InE,"1301 S Main St, Ottawa, KS 66067, United States",38.5967369,-95.2675323
AdventHealth Palm Coast,99,Palm Coast,FL,6.835521569759053,0.06904567242180862,AdventHealth Palm Coast,ChIJNawaM8Hq5ogRg1bmPpjFlcs,"60 Memorial Medical Pkwy, Palm Coast, FL 32164, United States",29.4789896,-81.19
AdventHealth Pepin Heart Institute,0,Tampa,FL,0.0,0.06904567242180862,AdventHealth Pepin Heart Institute,ChIJ42XOo5nHwogRHkB034Pghzo,"3100 E Fletcher Ave, Tampa, FL 33613, United States",28.0695783,-82.4232194
AdventHealth Rollins Brook,25,Lampasas,TX,1.7799894888976482,0.07119957955590593,AdventHealth Rollins Brook,ChIJKyxizzeUWoYRJgn-Ovg9sFw,"608 N Key Ave, Lampasas, TX 76550, United States",31.0723094,-98.18638299999999
AdventHealth Sebring,197,Sebring,FL,13.601997467096298,0.06904567242180862,AdventHealth Sebring,ChIJ_ShZwSVW3IgRkJa7-k7KCpk,"4200 Sun N Lake Blvd, Sebring, FL 33872, United States",27.5396543,-81.51008209999999
AdventHealth Shawnee Mission,365,Shawnee Mission,KS,19.79008438818565,0.05421940928270042,AdventHealth Shawnee Mission,ChIJDc_MeIvswIcREcBm6PtmarQ,"9100 W 74th St, Overland Park, KS 66204, United States",38.9949615,-94.6914402
AdventHealth Tampa,536,Tampa,FL,37.00848041808943,0.06904567242180862,AdventHealth Tampa,ChIJ1fsto5nHwogRT3QOU83ApHo,"3100 E Fletcher Ave, Tampa, FL 33613, United States",28.0711125,-82.4234243
AdventHealth Waterman,269,Tavares,FL,18.57328588146652,0.06904567242180862,AdventHealth Waterman,ChIJLc80bHm954gRdBDZnmnCTfU,"1000 Waterman Way, Tavares, FL 32778, United States",28.8236693,-81.7120411
AdventHealth Wauchula,25,Wauchula,FL,1.7261418105452155,0.06904567242180862,AdventHealth Wauchula,ChIJs55e31Pm3IgRWluZ-Uk0BGY,"735 S 5th Ave, Wauchula, FL 33873, United States",27.5393606,-81.807304
AdventHealth Wesley Chapel,145,Wesley Chapel,FL,10.01162250116225,0.06904567242180862,AdventHealth Wesley Chapel,ChIJTZsR6duwwogR-TezJetB0Ug,"2600 Bruce B Downs Blvd, Wesley Chapel, FL 33544, United States",28.1953536,-82.3518239
AdventHealth Winter Park,0,Winter Park,FL,0.0,0.06904567242180862,AdventHealth Winter Park,ChIJU7yQJO9v54gRJx-lf3Ln29s,"200 N Lakemont Ave, Winter Park, FL 32792, United States",28.5980056,-81.3269011
AdventHealth Zephyrhills,149,Zephyrhills,FL,10.287805190849484,0.06904567242180862,AdventHealth Zephyrhills,ChIJb1i1iGFN3YgR4CrJ6d822vg,"7050 Gall Blvd, Zephyrhills, FL 33541, United States",28.2608329,-82.185543
Adventist Health and Rideout,209,Marysville,CA,16.3109513431563,0.07804282939309233,Adventist Health and Rideout,ChIJl8PunxJTm4ARtzztS7fNsmQ,"726 4th St, Marysville, CA 95901, United States",39.1390252,-121.5934943
Adventist Health Bakersfield,254,Bakersfield,CA,19.822878665845455,0.07804282939309233,Adventist Health Bakersfield,ChIJNWHj9pJp6oARxeDDd9xrV4g,"2615 Chester Ave, Bakersfield, CA 93301, United States",35.384495,-119.0194407
Adventist Health Castle,160,Kailua,HI,10.77998322616718,0.06737489516354488,Adventist Health Castle,ChIJr0nBtrUUAHwRKgDsrvu8tVY,"640 Ulukahiki St, Kailua, HI 96734, United States",21.3805018,-157.7575914
Adventist Health Clear Lake,25,Clearlake,CA,1.9510707348273089,0.07804282939309233,Adventist Health Clear Lake,ChIJB43qFvOJg4AROjVQQsqgP8Q,"15630 18th Ave, Clearlake, CA 95422, United States",38.9353458,-122.6200816
Adventist Health Glendale,451,Glendale,CA,35.19731605628465,0.07804282939309233,Adventist Health Glendale,ChIJycP4BgvBwoAR3Xo0wuVeH9c,"1509 Wilson Terrace, Glendale, CA 91206, United States",34.150835,-118.2305114
Adventist Health Hanford,230,Hanford,CA,17.949850760411238,0.07804282939309233,Adventist Health Hanford Family Medicine Residency,ChIJqW30pHbDlIAR5leXt0Sk5o8,"1025 N Douty St #105, Hanford, CA 93230, United States",36.3368583,-119.6447304
Adventist Health Howard Memorial,25,Willits,CA,1.9510707348273089,0.07804282939309233,Adventist Health Howard Memorial,ChIJJwbQTNCbgYARzCq5K5Vz5h0,"1 Marcela Dr, Willits, CA 95490, United States",39.3899426,-123.3389404
Adventist Health Lodi Memorial,190,Lodi,CA,14.828137584687545,0.07804282939309233,Adventist Health Lodi Memorial Pharmacy,ChIJW50Kl2GgmoARsdey4Qrg22k,"2415 W Vine St, Lodi, CA 95242, United States",38.1236058,-121.3050293
Adventist Health Reedley,49,Reedley,CA,3.824098640261525,0.07804282939309233,Adventist Health Reedley,ChIJO3Jnlc3ilIARGcMO-BFOmC0,"372 W Cypress Ave, Reedley, CA 93654, United States",36.6085348,-119.4521895
Adventist Health Saint Helena,130,Saint Helena,CA,10.145567821102004,0.07804282939309233,Adventist Health St. Helena,ChIJGc0PrkhahIARoFCyKu1pyZI,"10 Woodland Rd, St Helena, CA 94574, United States",38.5425608,-122.4747622
Adventist Health Selma,0,Selma,CA,0.0,0.07804282939309233,Adventist Health Medical Office - Selma Central,ChIJaQ6JIgPwlIARIirV9_1n_v0,"2141 High St, Selma, CA 93662, United States",36.57043609999999,-119.6144343
Adventist Health Sonora,152,Sonora,CA,11.862510067750033,0.07804282939309233,Health Pavilion and Diana J. White Cancer Institute - Adventist Health Sonora,ChIJCWxiLM3FkIARTfjzqgam8U4,"900 Mono Way, Sonora, CA 95370, United States",37.9765129,-120.3681869
Adventist Health Tehachapi Valley,20,Tehachapi,CA,1.560856587861847,0.07804282939309233,Adventist Health Tehachapi Valley,ChIJvwE_JM_3wYARK1ycsDsxu9E,"1100 Magellan Dr, Tehachapi, CA 93561, United States",35.147446,-118.4504419
Adventist Health Tillamook Regional Medical Center,25,Tillamook,OR,1.6822742474916392,0.06729096989966556,Adventist Health Tillamook,ChIJl6GovL0r61QRnJi4P5BR_GU,"1000 3rd St, Tillamook, OR 97141, United States",45.457041,-123.8540843
Adventist Health Tulare,108,Tulare,CA,8.428625574453973,0.07804282939309233,Adventist Health Tulare,ChIJHQne6ZErlYARJwIuf-X_oU8,"869 N Cherry St, Tulare, CA 93274, United States",36.2211329,-119.3384921
Adventist Health Vallejo,0,Vallejo,CA,0.0,0.07804282939309233,Adventist Health Vallejo,ChIJwzb950VzhYARlzWqhc7iY24,"525 Oregon St, Vallejo, CA 94590, United States",38.117944,-122.2488158
Adventist Health White Memorial,353,Los Angeles,CA,27.5491187757616,0.07804282939309233,Adventist Health White Memorial,ChIJoVj5-w3GwoAR9FVNMYFu9AE,"1720 East Cesar E Chavez Avenue, Los Angeles, CA 90033, United States",34.0494573,-118.2167639
Adventist HealthCare Rehabilitation,89,Rockville,MD,6.4114445536321725,0.07203870284979969,Adventist HealthCare Rehabilitation,ChIJafDT7bEytokRykWkQYsP5Q8,"9909 Medical Center Dr, Rockville, MD 20850, United States",39.0985144,-77.200777
Adventist HealthCare Shady Grove Medical Center,338,Rockville,MD,24.34908156323229,0.07203870284979969,Adventist HealthCare Shady Grove Medical Center - Mental Health,ChIJT3vpya0ytokR_zTyGK3D-ls,"14915 Broschart Rd #2200, Rockville, MD 20850, United States",39.1010969,-77.1989844
Adventist HealthCare Shady Grove Medical Center - Mental Health,117,Rockville,MD,8.428528233426563,0.07203870284979969,Adventist HealthCare Shady Grove Medical Center - Mental Health,ChIJwTR9KqwytokRdFpTj1Fd3NY,"14901 Broschart Rd, Rockville, MD 20850, United States",39.0997858,-77.1994378
Adventist HealthCare Takoma Park,198,Takoma Park,MD,14.263663164260338,0.07203870284979969,Adventist HealthCare Rehabilitation,ChIJI8-inyLGt4kRUMCZ_E_Xovo,"7600 Carroll Ave #5200, Takoma Park, MD 20912, United States",38.9854486,-77.0019629
Adventist HealthCare White Oak Medical Center,0,Silver Spring,MD,0.0,0.07203870284979969,Adventist HealthCare White Oak Medical Center,ChIJ05suE3PFt4kRg06lbgD_N60,"11890 Healing Way, Silver Spring, MD 20904, United States",39.0491898,-76.9576308
Adventist Medical Center,211,Portland,OR,14.198394648829431,0.06729096989966556,Adventist Health Portland,ChIJVZbGpbyhlVQRoL-e6AZeyLM,"10123 SE Market St, Portland, OR 97216, United States",45.5132673,-122.5582881
Adventist Rehabilitation Hospital of Maryland Takoma Park,0,Takoma Park,MD,0.0,0.07203870284979969,Adventist HealthCare Rehabilitation,ChIJI8-inyLGt4kRUMCZ_E_Xovo,"7600 Carroll Ave #5200, Takoma Park, MD 20912, United States",38.9854486,-77.0019629
Advocate BroMenn Regional Medical Center,221,Normal,IL,14.987557590163455,0.06781700267042287,Advocate BroMenn Medical Center,ChIJJdck2LpxC4gRcK74KZuzCmU,"1304 Franklin Ave, Normal, IL 61761, United States",40.4971689,-88.99103699999999
Advocate Christ Medical Center,777,Oak Lawn,IL,52.693811074918564,0.06781700267042287,Advocate Christ Medical Center,ChIJzzXYZIs6DogRDn9m8HlPATw,"4440 W 95th St, Oak Lawn, IL 60453, United States",41.7217943,-87.73278239999999
Advocate Condell Medical Center,273,Libertyville,IL,18.514041729025443,0.06781700267042287,Advocate Condell Medical Center,ChIJV8hk0euWD4gRZIVY-_I-f2U,"801 S Milwaukee Ave, Libertyville, IL 60048, United States",42.2735489,-87.95620319999999
Advocate Eureka Hospital,25,Eureka,IL,1.6954250667605717,0.06781700267042287,Advocate Eureka Hospital,ChIJg4F4JjGvC4gR2ilT-ct4ckc,"101 S Major St, Eureka, IL 61530, United States",40.7207946,-89.271294
Advocate Good Samaritan Hospital,284,Downers Grove,IL,19.260028758400093,0.06781700267042287,Advocate Good Samaritan Hospital,ChIJH0a4ZQFODogRxuiuOHTiJ1M,"3815 Highland Ave, Downers Grove, IL 60515, United States",41.8183565,-88.0083625
Advocate Good Shepherd Hospital,176,Barrington,IL,11.935792469994425,0.06781700267042287,Advocate Good Shepherd Imaging Center,ChIJOQ58DZwKD4gR6AfWWBWCWlc,"450 IL-22, Barrington, IL 60010, United States",42.1956043,-88.1732048
Advocate Illinois Masonic Medical Center,311,Chicago,IL,21.091087830501515,0.06781700267042287,Advocate Illinois Masonic Medical Center,ChIJLydUwqnTD4gRF_8G4edBBAE,"836 W Wellington Ave, Chicago, IL 60657, United States",41.9369518,-87.6519723
Advocate Lutheran General Hospital,629,Park Ridge,IL,42.656894679695995,0.06781700267042287,Advocate Lutheran General Hospital,ChIJGWY4nBjID4gRDQporom3xw8,"1775 Dempster Street, Park Ridge, IL 60068, United States",42.0385102,-87.8476325
Advocate Sherman Hospital,255,Elgin,IL,17.29333568095783,0.06781700267042287,Advocate Sherman Hospital,ChIJe1P12aIaD4gResjM6i7Zscg,"1425 N Randall Rd, Elgin, IL 60123, United States",42.0700299,-88.3310089
Advocate South Suburban Hospital,233,Hazel Crest,IL,15.801361622208528,0.06781700267042287,Advocate South Suburban Hospital,ChIJd6Kx-xwYDogR8BHydQIFpg4,"17800 Kedzie Ave, Hazel Crest, IL 60429, United States",41.5663505,-87.69729629999999
Advocate Trinity Hospital,201,Chicago,IL,13.631217536754994,0.06781700267042287,Advocate Trinity Hospital,ChIJaSb-4NonDogRFMP1-AUYMLk,"2320 E 93rd St, Chicago, IL 60617, United States",41.7265222,-87.5679334
AHMC Anaheim Regional Medical Center,223,Anaheim,CA,17.40355095465959,0.07804282939309233,AHMC Anaheim Regional Medical Center,ChIJDTtcvfop3YAR-oZUPDCblUU,"1111 W La Palma Ave, Anaheim, CA 92801, United States",33.8480306,-117.9344242
AHN Grove City,77,Grove City,PA,5.438755655578216,0.07063319033218464,AHN Neurosurgery,ChIJ68Hi3Ot1M4gRWmK5bGx450M,"647 N Broad St Ext Suite 205, Grove City, PA 16127, United States",41.1711232,-80.08459549999999
Aiken Regional Medical Centers,266,Aiken,SC,18.729336696839294,0.07041104021368155,Aiken Regional Medical Centers,ChIJ1dgIVWFM-IgRSG2i_4MFiCk,"302 University Pkwy, Aiken, SC 29801, United States",33.5712279,-81.76186589999999
Akron Children's Hospital,402,Akron,OH,30.971091412116767,0.07704251595053921,"Akron Children's Hospital, Akron",ChIJy89iTiXWMIgRAJetnz4dDA0,"214 W Bowery St, Akron, OH 44308, United States",41.0798157,-81.5251555
Akron General Lodi Hospital,20,Lodi,OH,1.5408503190107845,0.07704251595053921,Cleveland Clinic Akron General Lodi Hospital,ChIJY61-E_KyMIgRslbsrtd-ckU,"225 Elyria St, Lodi, OH 44254, United States",41.0357983,-82.0142831
Alamance Regional Medical Center,212,Burlington,NC,14.236123148811094,0.06715152428684479,Cone Health Alamance Regional Medical Center,ChIJ2Yp71swuU4gR67iUu4XtiWo,"1240 Huffman Mill Rd, Burlington, NC 27215, United States",36.06109,-79.50215299999999
Alameda Hospital,215,Alameda,CA,16.779208319514858,0.07804282939309233,Alameda Hospital,ChIJZ0iY17mGj4ARoGuoSYkhO-Y,"2070 Clinton Ave, Alameda, CA 94501, United States",37.762677,-122.2541547
Alaska Native Medical Center,174,Anchorage,AK,10.177727784026995,0.058492688413948266,Alaska Native Medical Center,ChIJV_bUZRyXyFYRwPw76oDwVK8,"4315 Diplomacy Dr, Anchorage, AK 99508, United States",61.182452,-149.8002427
Alaska Psychiatric Institute,80,Anchorage,AK,4.6794150731158615,0.058492688413948266,Alaska Psychiatric Institute,ChIJF5zgegeXyFYRGWzcrzJkyMc,"3700 Piper St, Anchorage, AK 99508, United States",61.1852467,-149.8293623
Alaska Regional Hospital,174,Anchorage,AK,10.177727784026995,0.058492688413948266,Alaska Regional Hospital,ChIJKYPSVUSWyFYRdOlZ-qAaig4,"2801 Debarr Road, Anchorage, AK 99508, United States",61.21084380000001,-149.8284617
Albany Medical Center,793,Albany,NY,55.846117779444846,0.07042385596399099,Albany Med,ChIJlbh3sUYK3okR59mwn6EdZdI,"43 New Scotland Ave, Albany, NY 12208, United States",42.6536483,-73.7771411
Albany Stratton VA Medical Center,0,Albany,NY,0.0,0.07042385596399099,Albany Stratton VA Medical Center,ChIJPeSh60AK3okRFn195FIceDU,"113 Holland Ave, Albany, NY 12208, United States",42.6516719,-73.77246319999999
Albert J. Solnit Psychiatric Center - South Campus,0,Middletown,CT,0.0,0.06721375537319266,Albert J. Solnit Psychiatric Center - South Campus,ChIJPQ0oN4hJ5okR_j2BrnmIbqg,"915 River Rd, Middletown, CT 06457, United States",41.5582322,-72.61488
Aleda E. Lutz VA Medical Center,0,Saginaw,MI,0.0,0.06554759031868834,Aleda E. Lutz VA Medical Center,ChIJJzI7AHCOJogR-lrgKEZ9EKM,"1500 Weiss St, Saginaw, MI 48602, United States",43.4450568,-83.96235539999999
Alexandria VA Health Care System,0,Pineville,LA,0.0,0.05631156697471311,Alexandria VA Medical System Hospital,ChIJIfpuCx5NJYYR-2D77W117Y0,"2495 Shreveport Hwy, Pineville, LA 71360, United States",31.3548573,-92.4374829
Alfred I. duPont Hospital for Children & Nemours Children's Clinic,208,Wilmington,DE,14.227086183310533,0.06839945280437756,Nemours/Alfred I. duPont Hospital for Children,ChIJvZJcQun8xokRnLFfF_IC5YA,"1600 Rockland Rd, Wilmington, DE 19803, United States",39.7793789,-75.5552976
Alhambra Hospital Medical Center,144,Alhambra,CA,11.238167432605298,0.07804282939309233,Alhambra Hospital Medical Center,ChIJac8uHR3FwoARxnwl9qtk1Pg,"100 S Raymond Ave, Alhambra, CA 91801, United States",34.0903316,-118.144148
Alice Peck Day Memorial Hospital,24,Lebanon,NH,1.5974276527331188,0.06655948553054662,Alice Peck Day Memorial Hospital,ChIJ8XYm7AG1tEwRSvA3Dj5ZfxM,"10 Alice Peck Day Dr, Lebanon, NH 03766, United States",43.640602,-72.2642472
Allegan General Hospital,25,Allegan,MI,1.6386897579672086,0.06554759031868834,Allegan General Hospital,ChIJ8bTxctfeGYgRyXiHcVLq4bQ,"555 Linn St, Allegan, MI 49010, United States",42.5197847,-85.85601059999999
Alleghany Memorial Hospital,25,Sparta,NC,1.6787881071711197,0.06715152428684479,Alleghany Memorial Hospital,ChIJJ8GRqPaWUYgRBRakxhRa85M,"233 Doctors St, Sparta, NC 28675, United States",36.5096692,-81.1148401
Allegheny General Hospital,552,Pittsburgh,PA,38.98952106336592,0.07063319033218464,Allegheny General Hospital,ChIJc3z20fDzNIgRPbDIzCjRrp4,"320 E North Ave, Pittsburgh, PA 15212, United States",40.4569171,-80.00331229999999
Allegheny Valley Hospital,200,Natrona Heights,PA,14.126638066436927,0.07063319033218464,Allegheny Valley Hospital,ChIJSSpoH4G9NIgRa_nqPgdWbTM,"1301 Carlisle St, Natrona Heights, PA 15065, United States",40.6182931,-79.73678749999999
Allegiance Behavioral Health Center Of Plainview,20,Plainview,TX,1.423991591118119,0.07119957955590593,Allegiance Behavioral Health,ChIJZbwEq4vpAYcR1OG2MC1O-Ik,"2601 Dimmitt # 400, Plainview, TX 79072, United States",34.206576,-101.732656
Allegiance Behavioral Health Center of Ruston,28,Ruston,LA,1.5767238752919668,0.05631156697471311,Ruston Behavioral Health Clinic,ChIJQYGnokfFMYYRvujdz-9ihuM,"602 E Georgia Ave, Ruston, LA 71270, United States",32.5308842,-92.62989920000001
Allegiance Specialty Hospital of Greenville,39,Greenville,MS,2.5522083226959404,0.06544123904348566,Allegiance Specialty Hospital of Greenville,ChIJL6jtNGTtK4YRmAX05Tv6cBA,"300 S Washington Ave, Greenville, MS 38701, United States",33.4034918,-91.0508444
Allen County Regional Hospital,25,Iola,KS,1.3554852320675106,0.05421940928270042,Allen County Regional Hospital,ChIJB0J0Eq2MuIcRGgnIiBWqI_A,"3066 N Kentucky St, Iola, KS 66749, United States",37.94859,-95.392147
Allen Parish Community Healthcare,49,Kinder,LA,2.7592667817609424,0.05631156697471311,Allen Parish Community Healthcare,ChIJh0g7f1lrO4YRLTvi5PwOJ7s,"108 6th Ave, Kinder, LA 70648, United States",30.4924331,-92.8558012
Allendale County Hospital,69,Fairfax,SC,4.858361774744028,0.07041104021368155,Allendale County Hospital,ChIJvx8aXaRo-YgR1Ugq_m2c-Jg,"1787 Allendale-Fairfax Hwy, Fairfax, SC 29827, United States",32.9653607,-81.24805429999999
Alliance Community Hospital,145,Alliance,OH,11.171164812828183,0.07704251595053921,Aultman Alliance Community Hospital,ChIJX8Sz-PO0NogRH8B8oplgQm8,"200 E State St, Alliance, OH 44601, United States",40.9024583,-81.1024735
Alliance Health Center,154,Meridian,MS,10.077950812696793,0.06544123904348566,Alliance Health Center,ChIJMTyddll8hIgRzZ5wIvbfwn0,"5000 MS-39, Meridian, MS 39301, United States",32.4096736,-88.6776295
Alliance Hospital,40,Holly Springs,MS,2.6176495617394258,0.06544123904348566,"Alliance Healthcare System, Inc.",ChIJqwGdcELLf4gR2CN7iELaLYo,"1430 MS-4, Holly Springs, MS 38635, United States",34.7871352,-89.41672679999999
AllianceHealth Clinton,56,Clinton,OK,3.2894110176218447,0.05873948245753295,AllianceHealth Clinton,ChIJUY13TcccrIcR-PYxK8NpknQ,"100 N 30th St, Clinton, OK 73601, United States",35.514514,-98.99648499999999
AllianceHealth Durant,140,Durant,OK,8.223527544054612,0.05873948245753295,AllianceHealth Durant,ChIJC-VYVuxfS4YRkNYOZboLLTo,"1800 W University Blvd, Durant, OK 74701, United States",34.0067916,-96.3939869
AllianceHealth Madill,21,Madill,OK,1.2335291316081918,0.05873948245753295,AllianceHealth Madill,ChIJl7WwzhbHTIYRRt2rsTma65A,"901 S 5th Ave, Madill, OK 73446, United States",34.0810458,-96.777591
AllianceHealth Midwest,255,Midwest City,OK,14.9785680266709,0.05873948245753295,AllianceHealth Midwest,ChIJS2zV3FQ8socRRrPTtdSEVVY,"2825 Parklawn Dr, Midwest City, OK 73110, United States",35.4669024,-97.3936535
AllianceHealth Ponca City,48,Ponca City,OK,2.819495157961581,0.05873948245753295,AllianceHealth Ponca City,ChIJS6_q_z71sIcR4vcXdUZZSTI,"1900 N 14th St, Ponca City, OK 74601, United States",36.7250967,-97.0683408
AllianceHealth Seminole,32,Seminole,OK,1.8796634386410545,0.05873948245753295,AllianceHealth Seminole,ChIJQeiAAAOXs4cRdcxeoEUdV_w,"2401 W Wrangler Blvd, Seminole, OK 74868, United States",35.2461163,-96.6986455
AllianceHealth Woodward,40,Woodward,OK,2.3495792983013177,0.05873948245753295,AllianceHealth Woodward,ChIJeTGwBhrFqIcRktpwAH3k3TA,"900 17th St, Woodward, OK 73801, United States",36.4374176,-99.4003544
Allied Rehab Hospital,137,Scranton,PA,9.676747075509297,0.07063319033218464,Allied Services Rehab Hospital,ChIJL_cNA_vYxIkRuZYnc-Y_LOg,"475 Morgan Hwy, Scranton, PA 18508, United States",41.4470744,-75.6778301
Alomere Health,99,Alexandria,MN,5.04454636843428,0.050955013822568486,Alomere Health,ChIJ4RzzzoQPylIRlVo_jrJXjHs,"111 17th Ave E, Alexandria, MN 56308, United States",45.8739855,-95.37552939999999
Alta Bates Summit Medical Center,354,Oakland,CA,27.62716160515469,0.07804282939309233,Alta Bates Summit Medical Center | Summit Campus,ChIJ70f5qP99hYARZpxL5qGysD0,"350 Hawthorne Ave, Oakland, CA 94609, United States",37.8216476,-122.262967
Alta Bates Summit Medical Center Herrick Campus,0,Berkeley,CA,0.0,0.07804282939309233,Herrick Campus,ChIJZWWbEIN-hYARS4XiPbnYBVc,"2001 Dwight Way, Berkeley, CA 94704, United States",37.8640724,-122.2687119
Alta Bates Summit Medical Center Alta Bates Campus,401,Berkeley,CA,31.29517458663003,0.07804282939309233,Alta Bates Summit Medical Center | Alta Bates Campus,ChIJKfuLztN9hYARmakdGNOP-20,"2450 Ashby Ave, Berkeley, CA 94705, United States",37.8556279,-122.2575014
Alta View Hospital,58,Sandy,UT,4.633735705209657,0.07989199491740788,Alta View Hospital,ChIJyahi6EV9UocRhuzl6O-vowc,"9660 1300 E, Sandy, UT 84094, United States",40.5759443,-111.8539647
Alta Vista Regional Hospital,46,Las Vegas,NM,3.4756399669694464,0.07555739058629232,Alta Vista Regional Hospital,ChIJt-sioR54GYcRA9kqCO3JBho,"104 Legion Dr, Las Vegas, NM 87701, United States",35.6235778,-105.2107864
Alton Memorial Hospital,152,Alton,IL,10.308184405904274,0.06781700267042287,Alton Memorial Hospital,ChIJCy_hRaZE34cRZ9qq_4ENYJw,"1 Memorial Dr, Alton, IL 62002, United States",38.8995477,-90.1591567
Alton Mental Health Center,24,Alton,IL,1.6276080640901491,0.06781700267042287,Alton Mental Health Center,ChIJI9mfsIdc34cRCX_Y7sJOxOY,"4500 College Ave, Alton, IL 62002, United States",38.91129710000001,-90.1156461
Altru Hospital,294,Grand Forks,ND,14.145950280673617,0.04811547714514836,Altru Hospital,ChIJ_TfdOSOBxlIRl68CJa77Kj8,"1200 S Columbia Rd, Grand Forks, ND 58201, United States",47.9107295,-97.0691871
Altru Specialty Center,0,Grand Forks,ND,0.0,0.04811547714514836,Altru Specialty Care,ChIJz_Asc7GAxlIRKWitT3EY6k0,"4500 S Washington St, Grand Forks, ND 58201, United States",47.8768684,-97.04650409999999
Altus Baytown Hospital,14,Baytown,TX,0.996794113782683,0.07119957955590593,Altus Baytown Hospital,ChIJGwdioaZeP4YRRb_ASwEGlwk,"1626 W Baker Rd, Baytown, TX 77521, United States",29.771818,-94.981527
Altus Hospital Houston,0,Houston,TX,0.0,0.07119957955590593,Altus Houston Hospital,ChIJubGYYdHCQIYRfc51BMyQHNc,"6011 W Sam Houston Pkwy S, Houston, TX 77072, United States",29.711424,-95.5563359
Alvarado Hospital Medical Center,304,San Diego,CA,23.725020135500074,0.07804282939309233,Alvarado Hospital Medical Center,ChIJRZOFQotW2YARPt_teeg7QZY,"6655 Alvarado Rd, San Diego, CA 92120, United States",32.7764722,-117.0572902
Alvarado Parkway Institute,66,La Mesa,CA,5.150826739944095,0.07804282939309233,Alvarado Parkway Institute Behavioral Health System Outpatient Services,ChIJqYy7CvBW2YARHNvSRKGOMFI,"7050 Parkway Dr, La Mesa, CA 91942, United States",32.7744754,-117.0440399
American Family Children's Hospital,0,Madison,WI,0.0,0.05693199789140749,American Family Children's Hospital,ChIJu6TgLYusB4gRctRpHmhjgoQ,"1675 Highland Ave, Madison, WI 53792, United States",43.0769863,-89.4334823
American Fork Hospital,91,American Fork,UT,7.270171537484118,0.07989199491740788,American Fork Hospital,ChIJExPsBVKBTYcRBUT2sslg_OU,"170 N 1100 E, American Fork, UT 84003, United States",40.3799156,-111.7669064
Amery Hospital & Clinic,35,Amery,WI,1.9926199261992619,0.05693199789140749,Amery Hospital & Clinic,ChIJUxVUBqNnrVIRt15H9PU4ewA,"265 Griffin St E, Amery, WI 54001, United States",45.2968541,-92.3611462
AMG Physical Rehabilitation Hospital,24,Covington,LA,1.3514776073931145,0.05631156697471311,AMG Physical Rehabilitation Hospital - Covington,ChIJL-agh91bJ4YRr7uAXL5DhO0,"5025 Keystone Blvd #200, Covington, LA 70433, United States",30.4123275,-90.08093629999999
AMG Specialty Hospital - Albuquerque,25,Albuquerque,NM,1.8889347646573083,0.07555739058629232,AMG Specialty Hospital - Albuquerque,ChIJDbbqdKMMIocRum_wNrZSCr4,"5400 Gibson Blvd SE 3rd Floor, Albuquerque, NM 87108, United States",35.057986,-106.5813804
AMG Specialty Hospital - Houma,40,Houma,LA,2.2524626789885245,0.05631156697471311,AMG Specialty Hospital - Houma,ChIJzQXi4dYEIYYR4dP_xoyuwxM,"629 Dunn St, Houma, LA 70360, United States",29.5931362,-90.711862
AMG Specialty Hospital - Lafayette,18,Lafayette,LA,1.013608205544836,0.05631156697471311,AMG Specialty Hospital - Lafayette,ChIJSQJj-MmCJIYR4iXag_uDo5o,"4811 Ambassador Caffery Pkwy 4th floor, Lafayette, LA 70508, United States",30.14934079999999,-92.03634939999999
AMG Specialty Hospital - Las Vegas,24,Las Vegas,NV,2.158623984710941,0.08994266602962253,AMG Specialty Hospital - Las Vegas,ChIJiStGXifFyIARkOKtWu7bIUE,"4015 S, McLeod Dr, Las Vegas, NV 89121, United States",36.1165587,-115.1102797
AMG Specialty Hospital - Mercy,18,Okahoma City,OK,1.057310684235593,0.05873948245753295,AMG Specialty Hospital - Oklahoma City,ChIJl_ChyLkcsocRCEA8UQPHY6Y,"4300 W Memorial Rd 2nd floor, Oklahoma City, OK 73120, United States",35.606813,-97.5994803
AMG Specialty Hospital - Muncie,32,Muncie,IN,2.437590560960464,0.07617470503001449,AMG Specialty Hospital - Central Indiana (Muncie Campus),ChIJX_f1QBU9FYgRQ31FEx799EI,"East Tower, 2401 W University Ave 5th Floor, Muncie, IN 47303, United States",40.1968976,-85.4146284
AMG Specialty Hospital - Zachary,16,Zachary,LA,0.9009850715954096,0.05631156697471311,AMG Specialty Hospital - Zachary,ChIJ0QkDA3KJJoYR7AH6t4ZL32s,"4601 Mchugh Rd Building B, Zachary, LA 70791, United States",30.6473004,-91.1395804
AMG Specialty Hospital Central Indiana - Hancock,0,Greenfield,IN,0.0,0.07617470503001449,AMG Specialty Hospital - Central Indiana (Hancock Campus),ChIJ54z-wtgxa4gRMfp4YB6ySW0,"801 N State St 3rd floor, Greenfield, IN 46140, United States",39.7950203,-85.76760279999999
AMITA Health Adventist GlenOaks Hospital,138,Glendale Heights,IL,9.358746368518355,0.06781700267042287,AMITA Health Medical Center,ChIJ47XhQNqsD4gRsCxDM8Oo9Gw,"701 Winthrop Ave, Glendale Heights, IL 60139, United States",41.9152811,-88.0570138
AMITA Health Adventist Medical Center Bolingbrook,134,Bolingbrook,IL,9.087478357836664,0.06781700267042287,AMITA Health Adventist Medical Center Bolingbrook,ChIJq4C5PFxZDogRi1k0pqi3KDs,"500 Remington Blvd, Bolingbrook, IL 60440, United States",41.68121379999999,-88.0846656
AMITA Health Adventist Medical Center Hinsdale,261,Hinsdale,IL,17.70023769698037,0.06781700267042287,AMITA Health Adventist Medical Center Hinsdale,ChIJezjxkkZJDogReH-5CJ1Hshg,"120 N Oak St, Hinsdale, IL 60521, United States",41.8059873,-87.9207279
AMITA Health Adventist Medical Center La Grange,176,La Grange,IL,11.935792469994425,0.06781700267042287,AMITA Health Adventist Medical Center La Grange,ChIJnbDGzqNJDogRIpxkHAPQ_MQ,"5101 Willow Springs Rd, La Grange, IL 60525, United States",41.7967468,-87.8859998
AMITA Health Alexian Brothers Behavioral Health Hospital Hoffman Estates,141,Hoffman Estates,IL,9.562197376529623,0.06781700267042287,AMITA Health Alexian Brothers Behavioral Health Hospital Hoffman Estates,ChIJtbW8xnqoD4gRdn6LdquJ6Sc,"1650 Moon Lake Blvd, Hoffman Estates, IL 60169, United States",42.0541579,-88.1372537
AMITA Health Alexian Brothers Medical Center Elk Grove Village,354,Elk Grove Village,IL,24.007218945329694,0.06781700267042287,AMITA Health Alexian Brothers Medical Center Elk Grove Village,ChIJLUcNNCKuD4gRHQp7opTZqfg,"800 Biesterfield Rd, Elk Grove Village, IL 60007, United States",42.00500359999999,-88.0159973
AMITA Health Alexian Brothers Rehabilitation Hospital Elk Grove Village,0,Elk Grove Village,IL,0.0,0.06781700267042287,AMITA Health Alexian Brothers Rehabilitation Hospital,ChIJW5eObiKuD4gRfst76BsGlfM,"935 Beisner Rd, Elk Grove Village, IL 60007, United States",42.002593,-88.017331
AMITA Health Alexian Brothers Women and Children's Hospital Hoffman Estates,0,Hoffman Estates,IL,0.0,0.06781700267042287,AMITA Health Alexian Brothers Women & Children's Hospital Hoffman Estates,ChIJ____02-oD4gRMkfqivHn_3A,"1555 Barrington Rd, Hoffman Estates, IL 60169, United States",42.0531336,-88.1410926
AMITA Health Holy Family Medical Center Des Plaines,128,Des Plaines,IL,8.680576341814128,0.06781700267042287,AMITA Health Holy Family Medical Center Des Plaines,ChIJbxGwGoG3D4gRhs970mtQECo,"100 N River Rd, Des Plaines, IL 60016, United States",42.0553579,-87.8894309
AMITA Health Mercy Medical Center Aurora,256,Aurora,IL,17.361152683628255,0.06781700267042287,AMITA Health Mercy Medical Center Aurora,ChIJK1BGPSvlDogRiWRq0XQ8O-k,"1325 N Highland Ave, Aurora, IL 60506, United States",41.7859518,-88.3256347
AMITA Health Resurrection Medical Center Chicago,274,Chicago,IL,18.581858731695867,0.06781700267042287,AMITA Health Resurrection Medical Center Chicago,ChIJ_58vPXjJD4gR9sroNOirs8E,"7435 W Talcott Ave, Chicago, IL 60631, United States",41.9879395,-87.8147425
AMITA Health Saint Francis Hospital Evanston,181,Evanston,IL,12.274877483346538,0.06781700267042287,AMITA Health Saint Francis Hospital Evanston,ChIJ5U2jojDQD4gRU_Ngz1O-F94,"355 Ridge Ave, Evanston, IL 60202, United States",42.0246449,-87.6839608
AMITA Health Saint Joseph Hospital Chicago,313,Chicago,IL,21.22672183584236,0.06781700267042287,AMITA Health Saint Joseph Hospital Chicago,ChIJ2ZMC_KzTD4gReyKNY9VrAa8,"2900 N Lake Shore Dr, Chicago, IL 60657, United States",41.9340924,-87.63737739999999
AMITA Health Saint Joseph Hospital Elgin,184,Elgin,IL,12.478328491357805,0.06781700267042287,AMITA Health Saint Joseph Hospital Elgin,ChIJFzoiHNIaD4gRe_wtccc9AZw,"77 N Airlite St, Elgin, IL 60123, United States",42.0353998,-88.32579750000001
AMITA Health Saint Joseph Medical Center Joliet,424,Joliet,IL,28.754409132259298,0.06781700267042287,AMITA Health Saint Joseph Medical Center Joliet,ChIJ57eMpb1hDogRJ2alW0Y85TM,"333 North Madison St, Joliet, IL 60435, United States",41.5272892,-88.1360793
AMITA Health Saints Mary and Elizabeth Medical Center Saint Elizabeth Campus,219,Chicago,IL,14.85192358482261,0.06781700267042287,AMITA Health Saints Mary and Elizabeth Medical Center Chicago (Saint Mary Campus),ChIJQ9nfR7HSD4gRZ-vNMGN2V_0,"2233 W Division St, Chicago, IL 60622, United States",41.9030613,-87.6833381
AMITA Health Saints Mary and Elizabeth Medical Center Saint Mary Campus,429,Chicago,IL,29.09349414561141,0.06781700267042287,AMITA Health Saints Mary and Elizabeth Medical Center Chicago (Saint Mary Campus),ChIJQ9nfR7HSD4gRZ-vNMGN2V_0,"2233 W Division St, Chicago, IL 60622, United States",41.9030613,-87.6833381
AMITA Health St. Alexius Medical Center Hoffman Estates,318,Hoffman Estates,IL,21.565806849194473,0.06781700267042287,AMITA Health St. Alexius Medical Center Hoffman Estates,ChIJV9tQL26oD4gR1aA6FGNvh70,"1555 Barrington Rd, Hoffman Estates, IL 60169, United States",42.0542199,-88.1400798
AMITA Health St. Marys Hospital Kankakee,169,Kankakee,IL,11.461073451301464,0.06781700267042287,AMITA Health St. Mary’s Hospital Kankakee,ChIJQ_Q3gGrdDYgR1eRFxX5IcXo,"500 W Court St, Kankakee, IL 60901, United States",41.120466,-87.87219809999999
Anaheim Global Medical Center,183,Anaheim,CA,14.281837778935897,0.07804282939309233,Anaheim Global Medical Center,ChIJ09uL8MzX3IARrdlHjDH2DPw,"1025 S Anaheim Blvd, Anaheim, CA 92805, United States",33.8198075,-117.9091221
Anaheim Medical Center,484,Anaheim,CA,37.772729426256696,0.07804282939309233,AHMC Anaheim Regional Medical Center,ChIJDTtcvfop3YAR-oZUPDCblUU,"1111 W La Palma Ave, Anaheim, CA 92801, United States",33.8480306,-117.9344242
Anchor Hospital,172,Atlanta,GA,13.00187806992199,0.07559231436001156,Anchor Hospital,ChIJ67ewszjj9IgRWddr1gEVH30,"5454 Yorktowne Dr, Atlanta, GA 30349, United States",33.6081731,-84.4521115
Ancora Psychiatric Hospital,515,Ancora,NJ,30.702201018321773,0.05961592430742092,Ancora Psychiatric Hospital,ChIJg2CrzZopwYkR8QvrQpbS3Y8,"301 Spring Garden Rd, Hammonton, NJ 08037, United States",39.6826415,-74.8618108
Andalusia Health,83,Andalusia,AL,4.346291763902328,0.052364961010871416,Andalusia Health,ChIJAc9PCQbskYgRUZKggBiPfSI,"849 S 3 Notch St, Andalusia, AL 36420, United States",31.2962894,-86.4948273
Anderson County Hospital,12,Garnett,KS,0.6506329113924051,0.05421940928270042,Anderson County Hospital Specialty Clinic,ChIJAQAA5J68uIcRBofwlzGPej4,"421 S Maple St, Garnett, KS 66032, United States",38.2797113,-95.25116249999999
Anderson Hospital,154,Maryville,IL,10.443818411245124,0.06781700267042287,Anderson Hospital,ChIJCU2dLsv-dYgRX0dAFLOJBIk,"6800 State Route 162, IL-162, Maryville, IL 62062, United States",38.7366608,-89.9462185
Anderson Regional Medical Center North,260,Meridian,MS,17.01472215130627,0.06544123904348566,Anderson Regional Medical Center,ChIJc5n6IOh9hIgR8TxYRsWzzeY,"2124 14th St, Meridian, MS 39301, United States",32.3724894,-88.6992739
Anderson Regional Medical Center South,69,Meridian,MS,4.5154454940005095,0.06544123904348566,Anderson Regional Medical Center,ChIJc5n6IOh9hIgR8TxYRsWzzeY,"2124 14th St, Meridian, MS 39301, United States",32.3724894,-88.6992739
Androscoggin Valley Hospital,25,Berlin,NH,1.6639871382636655,0.06655948553054662,Androscoggin Valley Hospital,ChIJh-LWRIX6s0wRdWf4xH_BN-Y,"59 Page Hill Rd, Berlin, NH 03570, United States",44.4876103,-71.1568451
Angel Medical Center,25,Franklin,NC,1.6787881071711197,0.06715152428684479,Angel Medical Center,ChIJMXISrkglWYgRRgKCLh6eKkk,"120 Riverview St, Franklin, NC 28734, United States",35.184467,-83.379413
Animas Surgical Hospital,12,Durango,CO,0.914371557336004,0.07619762977800032,Animas Surgical Hospital,ChIJP-k0U8UCPIcRdgEVG4HzDKo,"575 Rivergate Ln, Durango, CO 81301, United States",37.2482063,-107.8708022
AnMed Health Cannon,42,Pickens,SC,2.9572636889746247,0.07041104021368155,AnMed Health Cannon,ChIJMQCuSU9OWIgR4qusNHsbXac,"123 W G Acker Dr, Pickens, SC 29671, United States",34.8741802,-82.7071459
AnMed Health Medical Center,396,Anderson,SC,27.88277192461789,0.07041104021368155,AnMed Health Medical Center Emergency Room,ChIJQ2qnWSpsWIgRxavMUW6CTVI,"800 N Fant St, Anderson, SC 29621, United States",34.5107064,-82.6467986
AnMed Health North Campus,0,Anderson,SC,0.0,0.07041104021368155,Anmed Health North Campus,ChIJSazBhwxsWIgR9DXCEQnOsKw,"2000 E Greenville St # 2000, Anderson, SC 29621, United States",34.5455558,-82.629014
AnMed Health Rehabilitation Hospital,60,Anderson,SC,4.2246624128208925,0.07041104021368155,AnMed Health Rehabilitation Hospital,ChIJ0UHTIRNsWIgR3a9R87BWNRE,"1 Springback Way, Anderson, SC 29621, United States",34.5377161,-82.62806119999999
Ann & Robert H. Lurie Children's Hospital of Chicago,312,Chicago,IL,21.15890483317193,0.06781700267042287,Ann & Robert H. Lurie Children's Hospital of Chicago,ChIJk6Jp6FTTD4gR_eE2mObBi5M,"225 E Chicago Ave, Chicago, IL 60611, United States",41.8962223,-87.6218344
Ann Klein Forensic Center,200,West Trenton,NJ,11.923184861484186,0.05961592430742092,Ann Klein Forensic Center,ChIJx50b949XwYkRM7Okmr_Qw6c,"1609 Stuyvesant Ave, Trenton, NJ 08628, United States",40.2468438,-74.8017668
Anna Jaques Hospital,140,Newburyport,MA,9.652335716384293,0.06894525511703066,Anna Jaques Hospital,ChIJfdVf7Z3h4okRsCcBo8ICGMA,"25 Highland Ave, Newburyport, MA 01950, United States",42.8141914,-70.8912533
Anne Arundel Medical Center,379,Annapolis,MD,27.302668380074078,0.07203870284979969,Anne Arundel Medical Center,ChIJk_hh-tj2t4kRE_KQg8cMmrM,"2001 Medical Pkwy, Annapolis, MD 21401, United States",38.9901197,-76.5356436
Annie Jeffrey Memorial County Health Center,16,Osceola,NE,1.0433809123985447,0.06521130702490904,Annie Jeffrey Memorial County Health Center,ChIJ5aR6C-qwkIcR-MzaM8sATUI,"531 Beebe St, Osceola, NE 68651, United States",41.1697564,-97.5490483
Anoka-Metro Regional Treatment Center,110,Anoka,MN,5.605051520482533,0.050955013822568486,Amrtc,ChIJIw6SQGM-s1IRhFm7JbV7AQI,"3301 N 7th Ave, Anoka, MN 55303, United States",45.214921,-93.3797027
Anson General Hospital,7,Anson,TX,0.4983970568913415,0.07119957955590593,Anson General Hospital,ChIJK5S4n1ErVIYRSkyDlutjzvc,"101 Avenue J, Anson, TX 79501, United States",32.7679807,-99.8950016
Antelope Memorial Hospital,23,Neligh,NE,1.499860061572908,0.06521130702490904,Antelope Memorial Hospital,ChIJ16YKtcCwmocR0IU2JSdmze0,"102 W 9th St, Neligh, NE 68756, United States",42.1342179,-98.0307509
Antelope Valley Hospital,393,Lancaster,CA,30.67083195148529,0.07804282939309233,Antelope Valley Hospital,ChIJZY27idhawoARnzTBG5a0bvw,"1600 W Ave J, Lancaster, CA 93534, United States",34.6881536,-118.159383
Antioch Medical Center,138,Antioch,CA,10.769910456246743,0.07804282939309233,Kaiser Permanente Antioch,ChIJZ9Uuumf4j4AR3w6FFC6OGcc,"4501 Sand Creek Rd, Antioch, CA 94531, United States",37.9511537,-121.7749527
"Apalachee Center, Inc.",46,Tallahassee,FL,3.1761009314031963,0.06904567242180862,Apalachee Center Inc,ChIJMXcKijFf7IgRyCLuNi7ZHXE,"2634 Capital Cir NE, Tallahassee, FL 32308, United States",30.487072,-84.2399946
Apollo Behavioral Health Hospital,18,Baton Rouge,LA,1.013608205544836,0.05631156697471311,Apollo Behavioral Health Hospital,ChIJ_S-ILw2iJoYRdosL5a6_3mA,"9938 Airline Hwy, Baton Rouge, LA 70816, United States",30.427385,-91.07849139999999
Appalachian Behavioral Healthcare - Athens Campus,92,Athens,OH,7.087911467449608,0.07704251595053921,Appalachian Behavioral Healthcare,ChIJSysLDI5zSIgRxBmqS1dbXYs,"100 Hospital Dr, Athens, OH 45701, United States",39.3285925,-82.1185708
Appleton Area Health Services,65,Appleton,MN,3.312075898466952,0.050955013822568486,Appleton Area Health,ChIJ7QUASCIXy1IRqjr4Q_c317E,"30 S Behl St, Appleton, MN 56208, United States",45.1996051,-96.0083927
Appling Hospital,165,Baxley,GA,12.472731869401903,0.07559231436001156,Appling Healthcare,ChIJwwqzhNZy8IgRh3u2vSOIYnQ,"163 E Tollison St, Baxley, GA 31513, United States",31.76946899999999,-82.3494503
Arbor Health Morton Hospital,25,Morton,WA,1.5467732386027235,0.06187092954410895,"Arbor Health, Morton Hospital",ChIJu5R6kg-1llQRkiK9Gyf7P04,"521 Adams Ave, Morton, WA 98356, United States",46.5554066,-122.2800151
Arbour Hospital,136,Jamacia Plain,MA,9.37655469591617,0.06894525511703066,Arbour Hospital,ChIJtxagTXB544kRwFgegg62mzs,"49 Robinwood Ave, Jamaica Plain, MA 02130, United States",42.3158419,-71.1123215
Arbuckle Memorial Hospital,25,Sulphur,OK,1.4684870614383236,0.05873948245753295,Arbuckle Memorial Hospital,ChIJYYq1Sugls4cRCU0aAysr1Z4,"2011 W Broadway Ave, Sulphur, OK 73086, United States",34.5050586,-96.9960081
Archbold Medical Center,328,Thomasville,GA,24.79427911008379,0.07559231436001156,Archbold Medical Center,ChIJndMygcq17YgR8FiTll67So0,"Gordon Ave. at, Mimosa Dr, Thomasville, GA 31792, United States",30.82508769999999,-83.97193349999999
ArchCare at Terence Cardinal Cooke Health Care Center,615,New York,NY,43.310671417854465,0.07042385596399099,ArchCare at Terence Cardinal Cooke Health Care Center,ChIJQxjtfBz2wokRhwyV-7gR7Nc,"1249 5th Ave, New York, NY 10029, United States",40.7936744,-73.9505386
Arden Wood,13,San Francisco,CA,1.0145567821102004,0.07804282939309233,Arden Wood,ChIJCar4b5V9j4ARNtq8kVvgdmU,"445 Wawona St, San Francisco, CA 94116, United States",37.7374018,-122.4720982
ARH Our Lady of the Way,25,Martin,KY,1.4299921644264963,0.05719968657705985,ARH Our Lady of the Way,ChIJY4Y-67kaRYgRzZHpoitnHQQ,"11203 Main St, Martin, KY 41649, United States",37.5788864,-82.7509384
Arise Austin Medical Center,21,Austin,TX,1.4951911706740246,0.07119957955590593,Arise Austin Medical Center,ChIJ_SCkdchKW4YRq0xySTns5-g,"3003 Bee Caves Rd, Austin, TX 78746, United States",30.270909,-97.7959815
Arizona Specialty Hospital,24,Chandler,AZ,1.9202933985330075,0.0800122249388753,Dignity Health Arizona Specialty Hospital,ChIJBS5DtRAHK4cRXkQjyBNvL44,"2905 W Warner Rd Suite 1, Chandler, AZ 85224, United States",33.3339299,-111.8913029
Arizona Spine and Joint Hospital,23,Mesa,AZ,1.8402811735941318,0.0800122249388753,Arizona Spine & Joint Hospital,ChIJmcaqsh-vK4cRoVIgEEi7O44,"4620 E Baseline Rd, Mesa, AZ 85206, United States",33.3806276,-111.7348077
Arizona State Hospital,159,Phoenix,AZ,12.721943765281171,0.0800122249388753,Arizona State Hospital,ChIJfVpxOeANK4cRUTp8CGp2dZ4,"2500 E Van Buren St, Phoenix, AZ 85008, United States",33.4516506,-112.0258994
Arkansas Children's Hospital,336,Little Rock,AR,19.57551771744133,0.0582604693971468,Arkansas Children's Hospital,ChIJf5Fcp1q70ocRWc9Rbm9yR9s,"1 Children's Way, Little Rock, AR 72202, United States",34.7408049,-92.2925603
Arkansas Children's Northwest,24,Springdale,AR,1.3982512655315231,0.0582604693971468,Arkansas Children's Northwest Hospital,ChIJXS06JeJsyYcR6o6y3PBqITM,"2601 Gene George Blvd, Springdale, AR 72762, United States",36.1621821,-94.1903392
Arkansas Continued Care Hospital of Jonesboro,44,Jonesboro,AR,2.5634606534744595,0.0582604693971468,Arkansas Continued Care Hospital,ChIJ52XHFRcs1IcRLU3yz_oMhog,"3024 Red Wolf Blvd, Jonesboro, AR 72401, United States",35.8084361,-90.66653629999999
Arkansas Heart Hospital,112,Little Rock,AR,6.525172572480442,0.0582604693971468,Arkansas Heart Hospital Clinic,ChIJaenHN7em0ocRivwsmqKIkgc,"7 Shackleford W Blvd, Little Rock, AR 72211, United States",34.7409303,-92.3967344
Arkansas Methodist Medical Center,129,Paragould,AR,7.515600552231938,0.0582604693971468,Arkansas Methodist Medical Center,ChIJM6WDTw971ocR1fG7pBQ0kMY,"900 W Kingshighway, Paragould, AR 72450, United States",36.0516946,-90.4985428
Arkansas State Hospital,230,Little Rock,AR,13.399907961343764,0.0582604693971468,Arkansas State Hospital,ChIJH2lPlp-k0ocRuQ9QCKJrRMc,"State Hospital, 305 S Palm St, Little Rock, AR 72205, United States",34.7508326,-92.32433929999999
Arkansas Surgical Hospital,49,North Little Rock,AR,2.8547630004601934,0.0582604693971468,Arkansas Surgical Hospital,ChIJE3d0xVOi0ocRfCDePPExHlo,"5201 Northshore Dr, North Little Rock, AR 72118, United States",34.8002051,-92.3485444
Arkansas Valley Regional Medical Center,552,La Junta,CO,42.06109163745619,0.07619762977800032,Arkansas Valley Regional Medical Center,ChIJR0T2h2MHEocRli7FA1Cptwc,"1100 Carson Ave, La Junta, CO 81050, United States",37.9782674,-103.5491141
Arms Acres,0,Carmel,NY,0.0,0.07042385596399099,Arms Acres,ChIJwdGAVwxN3YkR9n3sBY9ccZY,"75 Seminary Hill Rd, Carmel Hamlet, NY 10512, United States",41.4135047,-73.67618639999999
Armstrong County Memorial Hospital,164,Kittanning,PA,11.583843214478279,0.07063319033218464,Armstrong County Memorial Hospital: Lewis John MD,ChIJO8e_IABYM4gRM66ERVuFoq0,"1 Nolte Dr #1, Kittanning, PA 16201, United States",40.8087701,-79.5619244
Arnold Palmer Hospital for Children,0,Orlando,FL,0.0,0.06904567242180862,Orlando Health Arnold Palmer Hospital for Children,ChIJdYyAOQl754gRlaYbTrRsRvA,"92 W Miller St, Orlando, FL 32806, United States",28.5231659,-81.3797981
Arnot Ogden Medical Center,225,Elmira,NY,15.845367591897974,0.07042385596399099,Arnot Ogden Medical Center,ChIJG4g5sv8_0IkRqXDCKzebLxo,"600 Roe Ave, Elmira, NY 14905, United States",42.1009135,-76.8268806
Arrowhead Behavioral Health,48,Maumee,OH,3.6980407656258816,0.07704251595053921,Arrowhead Behavioral Health,ChIJD-AdWwh6PIgR00hMxLbNDwA,"1725 Timberline Rd, Maumee, OH 43537, United States",41.589636,-83.689534
Arrowhead Regional Medical Center,456,Colton,CA,35.58753020325011,0.07804282939309233,Arrowhead Regional Medical Center,ChIJ6ztlRFCt3IARGgN0m8b0voc,"Colton, CA 92324, United States",34.0721096,-117.3519874
Arroyo Grande Community Hospital,67,Arroyo Grande,CA,5.228869569337187,0.07804282939309233,Emergency Room - Arroyo Grande Community Hospital,ChIJf29f5Zte7IAR_2apaHKj_MM,"345 S Halcyon Rd, Arroyo Grande, CA 93420, United States",35.1133957,-120.5905777
Artesia General Hospital,49,Artesia,NM,3.7023121387283235,0.07555739058629232,Artesia General Hospital,ChIJhYE4Z5Ku44YRyG6-kppGSAU,"702 N 13th St, Artesia, NM 88210, United States",32.8486546,-104.4111303
Asante Ashland Community Hospital,38,Ashland,OR,2.557056856187291,0.06729096989966556,Asante Ashland Community Hospital,ChIJxVnhU1lzz1QRafpkY2L3dHk,"280 Maple St, Ashland, OR 97520, United States",42.2056499,-122.7248029
Asante Rogue Regional Medical Center,337,Medford,OR,22.677056856187292,0.06729096989966556,Asante Rogue Regional Medical Center,ChIJDbnfNXF6z1QR5kcZnw--cWg,"2825 E Barnett Rd, Medford, OR 97504, United States",42.3179686,-122.8313997
Asante Three Rivers Medical Center,121,Grants Pass,OR,8.142207357859531,0.06729096989966556,Asante Three Rivers Medical Center Emergency Room,ChIJJZlINFN6xVQR4C81SyKtzdQ,"500 SW Ramsey Ave, Grants Pass, OR 97527, United States",42.4217608,-123.3427291
Ascension All Saints Hospital - Spring Street Campus,263,Racine,WI,14.97311544544017,0.05693199789140749,Ascension All Saints Hospital - Spring Street Campus,ChIJORx6nlxCBYgR0I86WAzr3J8,"3801 Spring St, Racine, WI 53405, United States",42.7317886,-87.82648309999999
Ascension All Saints Hospital Wisconsin Avenue Campus,175,Racine,WI,9.963099630996313,0.05693199789140749,Ascension All Saints Hospital Wisconsin Avenue Campus - Family Medicine,ChIJ23tu4HpDBYgRJsQsmHvNypI,"1320 Wisconsin Ave, Racine, WI 53403, United States",42.7163413,-87.7841466
Ascension Borgess Hospital,371,Kalamazoo,MI,24.318156008233377,0.06554759031868834,Ascension Borgess Hospital,ChIJ-ypUdyqdF4gROwBmGMxrDJk,"1521 Gull Rd, Kalamazoo, MI 49048, United States",42.307594,-85.56007389999999
Ascension Borgess-Lee Hospital,25,Dowagiac,MI,1.6386897579672086,0.06554759031868834,Ascension Borgess-Lee Hospital,ChIJDw_oNr0vF4gRW-r0HSWAqvE,"420 W High St, Dowagiac, MI 49047, United States",41.9829848,-86.1156596
Ascension Borgess-Pipp Hospital,43,Plainwell,MI,2.8185463837035987,0.06554759031868834,Ascension Borgess-Pipp Hospital - Emergency Room,ChIJ5_ROf0h-F4gRorBTvVNtyLc,"411 Naomi St, Plainwell, MI 49080, United States",42.4470365,-85.6540155
Ascension Brighton Center for Recovery,99,Brighton,MI,6.489211441550147,0.06554759031868834,Ascension Brighton Center for Recovery,ChIJ82eY275QI4gRHncvVsRIGv4,"12851 Grand River Ave, Brighton, MI 48116, United States",42.5185806,-83.694088
Ascension Calumet Hospital,25,Chilton,WI,1.4232999472851873,0.05693199789140749,Ascension Calumet Hospital,ChIJ8VgNRJN1A4gRAyLaiSseRPQ,"614 Memorial Dr, Chilton, WI 53014, United States",44.0252714,-88.15364509999999
Ascension Columbia Saint Mary's Hospital Milwaukee,263,Milwaukee,WI,14.97311544544017,0.05693199789140749,Ascension Columbia St. Mary's Women's Medical Center,ChIJQXlb0MMYBYgRGYZwqZCMtFo,"2323 N Lake Dr, Milwaukee, WI 53211, United States",43.0614467,-87.8799264
Ascension Eagle River Memorial Hospital,14,Eagle River,WI,0.7970479704797049,0.05693199789140749,Ascension Eagle River Hospital,ChIJD07j9rA3VE0R4-50tmPk9t4,"201 E Hospital Rd, Eagle River, WI 54521, United States",45.9280403,-89.2510209
Ascension Genesys Hospital,370,Grand Blanc,MI,24.25260841791469,0.06554759031868834,Ascension Genesys Hospital,ChIJV5yBN1J8I4gR_Ee7lmTONxY,"1 Genesys Pkwy, Grand Blanc Twp, MI 48439, United States",42.8903226,-83.6367994
Ascension Good Samaritan Hospital,25,Merrill,WI,1.4232999472851873,0.05693199789140749,Ascension Good Samaritan Hospital,ChIJkZcEOWg4VU0R99E-kuT_hz8,"601 S Center Ave, Merrill, WI 54452, United States",45.17547,-89.68212179999999
Ascension Jane Phillips Medical Center,114,Bartlesville,OK,6.696301000158756,0.05873948245753295,Ascension Jane Phillips Medical Center,ChIJh7ShVE0St4cRhir0Fcd5PoE,"3500 SE Frank Phillips Blvd, Bartlesville, OK 74006, United States",36.752505,-95.939515
Ascension Jane Phillips Nowata Health Center,25,Nowata,OK,1.4684870614383236,0.05873948245753295,Ascension St. John Nowata,ChIJJ6Dk9TOkt4cRlheDPIxO-w0,"237 S Locust St, Nowata, OK 74048, United States",36.6966322,-95.6302697
Ascension Macomb - Oakland Hospital Warren Campus,507,Warren,MI,33.23262829157499,0.06554759031868834,"Ascension Macomb-Oakland Hospital, Warren Campus",ChIJ1ftCcRDaJIgRv6ikcXQ4RPM,"11800 Twelve Mile Rd, Warren, MI 48093, United States",42.50573250000001,-83.0054148
"Ascension Macomb-Oakland Hospital, Madison Heights Campus",159,Madison Heights,MI,10.422066860671444,0.06554759031868834,"Ascension Macomb-Oakland Hospital, Madison Heights Campus",ChIJ1dGCOvrPJIgRBXH53CISB9g,"27351 Dequindre Rd, Madison Heights, MI 48071, United States",42.4940461,-83.0874369
Ascension North East Wisconsin - Mercy Campus,110,Oshkosh,WI,6.262519768054824,0.05693199789140749,Ascension NE Wisconsin Mercy Hospital,ChIJg7bQZtPoA4gRWq0hnhYiJfw,"500 S Oakwood Rd, Oshkosh, WI 54904, United States",44.0129408,-88.6004882
Ascension Northeast Wisconsin Saint Elizabeth Campus,308,Appleton,WI,17.535055350553506,0.05693199789140749,Ascension NE Wisconsin St. Elizabeth Hospital,ChIJE1QNI023A4gRbSLuZ4TlkOo,"1506 S Oneida St, Appleton, WI 54915, United States",44.2483485,-88.4024357
Ascension Providence,271,Waco,TX,19.295086059650508,0.07119957955590593,Ascension Providence,ChIJGRliM6CGT4YRQeBX-0WhGlo,"6901 Medical Pkwy, Waco, TX 76712, United States",31.5134403,-97.19867590000001
Ascension Providence DePaul Center,64,Waco,TX,4.5567730915779805,0.07119957955590593,Providence DePaul Center,ChIJo7Q9KaKGT4YRjfrHb3CJh_s,"301 Londonderry Dr, Woodway, TX 76712, United States",31.5111972,-97.1988346
Ascension Providence Hospital Novi Campus,0,Novi,MI,0.0,0.06554759031868834,"Ascension Providence Hospital, Novi Campus",ChIJObsq_tioJIgRDkkLN_SX-pk,"47601 Grand River Ave, Novi, MI 48374, United States",42.4871124,-83.5201863
"Ascension Providence Hospital, Southfield Campus",583,Southfield,MI,38.2142451557953,0.06554759031868834,"Ascension Providence Hospital, Southfield Campus",ChIJi3_EfwjJJIgR-o3OthOR-dc,"16001 W Nine Mile Rd, Southfield, MI 48075, United States",42.4571148,-83.2041363
Ascension Providence Rochester Hospital,224,Rochester,MI,14.682660231386187,0.06554759031868834,Ascension Providence Rochester Hospital,ChIJfSseW5PpJIgRolOLAOE5MXU,"1101 W University Dr, Rochester, MI 48307, United States",42.6798,-83.1494329
Ascension River District Hospital,65,East China Township,MI,4.260593370714743,0.06554759031868834,Ascension River District Hospital-Emergency Room,ChIJJ57Gk7RzJYgREBvPwIfi7Dk,"4100 River Rd, East China, MI 48054, United States",42.7850165,-82.48105149999999
Ascension Sacred Heart Hospital,15,Tomahawk,WI,0.8539799683711123,0.05693199789140749,Ascension Sacred Heart - Tomahawk,ChIJgdyHegBzVU0RdkOLcRhyFkk,"401 W Mohawk Dr, Tomahawk, WI 54487, United States",45.486481,-89.73401799999999
Ascension Sacred Heart Hospital on the Emerald Coast,62,Miramar Beach,FL,4.280831690152135,0.06904567242180862,Ascension Sacred Heart Emerald Coast,ChIJ6dOc_i1ZkYgRNnNmnoEF6GA,"7800 US-98, Miramar Beach, FL 32550, United States",30.3786985,-86.30713
Ascension Sacred Heart Hospital on the Gulf,19,Port Saint Joe,FL,1.3118677760143638,0.06904567242180862,Ascension Sacred Heart Gulf,ChIJO1PYP0OalIgRx9KhbCy8JCo,"3801 US-98, Port St Joe, FL 32456, United States",29.7789091,-85.28771809999999
Ascension Sacred Heart Hospital Pensacola,561,Pensacola,FL,38.73462222863464,0.06904567242180862,Ascension Sacred Heart Medical Park at Airport Boulevard,ChIJMxTvRQ3AkIgREUW7D0JC9RM,"1549 Airport Blvd, Pensacola, FL 32504, United States",30.48116199999999,-87.2110589
Ascension Sacred Heart Rehabilitation Institute,49,Milwaukee,WI,2.7896678966789668,0.05693199789140749,Ascension Sacred Heart Rehabilitation Hospital,ChIJ2-vEwLQQBYgR4D-gMbkby6Q,"2301 N Lake Dr, Milwaukee, WI 53211, United States",43.061232,-87.8805689
Ascension Saint Clare's Hospital,99,Weston,WI,5.636267791249341,0.05693199789140749,Ascension Saint Clare's Hospital,ChIJN39Aw6glAIgRBo85NBmpApE,"3400 Ministry Pkwy, Weston, WI 54476, United States",44.8903311,-89.58030649999999
Ascension Saint John Owasso,32,Owasso,OK,1.8796634386410545,0.05873948245753295,Ascension St. John Owasso,ChIJtX2-TAv6tocRukwZsGj3uD4,"12451 E 100th St N, Owasso, OK 74055, United States",36.2992381,-95.8350858
Ascension Saint John Sapulpa,25,Sapulpa,OK,1.4684870614383236,0.05873948245753295,Ascension St. John Sapulpa,ChIJ2_bknrC9tocRLYzSHgj9rlk,"1004 E Bryan Ave, Sapulpa, OK 74066, United States",35.9929406,-96.1001445
Ascension Saint Mary's Hospital,63,Rhinelander,WI,3.5867158671586714,0.05693199789140749,Ascension St. Mary's Hospital,ChIJPwHzpjJUVE0RILXzyW1lcVU,"2251 N Shore Dr, Rhinelander, WI 54501, United States",45.6395951,-89.3748466
Ascension Saint Thomas Highlands Hospital,46,Sparta,TN,3.2486964618249536,0.07062383612662942,Saint Thomas Highlands Hospital,ChIJ6Qm_DVguZ4gRyTZpiHwGLs4,"401 Sewell Dr, Sparta, TN 38583, United States",35.948927,-85.478253
Ascension Saint Thomas Stones River Hospital,52,Woodbury,TN,3.67243947858473,0.07062383612662942,Saint Thomas Stones River Hospital,ChIJGyvMDD9NYYgRV5rHyRMvCDw,"324 Doolittle Rd, Woodbury, TN 37190, United States",35.8326457,-86.0721125
Ascension Saint Thomas West,340,Nashville,TN,24.012104283054004,0.07062383612662942,Saint Thomas West Hospital,ChIJo5MjO9xjZIgR7LrKfvkMIoc,"4220 Harding Pike, Nashville, TN 37205, United States",36.1292897,-86.8445021
Ascension Saint Vincent Carmel,153,Carmel,IN,11.654729869592217,0.07617470503001449,Ascension St. Vincent Carmel,ChIJU4WS3DmsFIgRZkY0WK2nv60,"13500 N Meridian St, Carmel, IN 46032, United States",39.9821468,-86.1442253
Ascension Saint Vincent Clay,25,Brazil,IN,1.904367625750362,0.07617470503001449,Ascension St. Vincent Clay,ChIJV1im4S0RbYgRKOnohy69xsU,"1206 E National Ave, Brazil, IN 47834, United States",39.528443,-87.1118319
Ascension Saint Vincent Evansville,438,Evansville,IN,33.364520803146355,0.07617470503001449,Ascension St. Vincent Evansville,ChIJtU-T_9kqbogRrfqmGRXquV4,"3700 Washington Ave, Evansville, IN 47714, United States",37.9650276,-87.50449549999999
Ascension Saint Vincent Indianapolis Hospital,825,Indianapolis,IN,62.844131649761955,0.07617470503001449,St Vincent Hospital,ChIJc0lA38dUa4gRZ8K7pkyl-iQ,"8402 Harcourt Rd # 501, Indianapolis, IN 46260, United States",39.9093849,-86.19543499999999
Ascension Saint Vincent Stress Center,0,Indianapolis,IN,0.0,0.07617470503001449,St. Vincent Indianapolis Stress Center,ChIJ15mu3rlUa4gR_mk_UW3bsTM,"8401 Harcourt Rd, Indianapolis, IN 46260, United States",39.9084896,-86.1926821
Ascension SE Wisconsin Hospital Franklin Campus,44,Franklin,WI,2.5050079072219296,0.05693199789140749,Ascension SE Wisconsin Hospital - Franklin Campus,ChIJ4Swi4moTBYgR6VQsT2ECkxI,"10101 S 27th St, Franklin, WI 53132, United States",42.860077,-87.9542397
Ascension SE Wisconsin Hospital-Elmbrook Campus,108,Brookfield,WI,6.148655772272009,0.05693199789140749,Ascension SE Wisconsin Hospital - Elmbrook Campus,ChIJAXASFWkHBYgRvgwAKTuMHvk,"19333 W North Ave, Brookfield, WI 53045, United States",43.0593902,-88.1545582
Ascension SE Wisconsin Hospital-St. Joseph Campus,334,Milwaukee,WI,19.0152872957301,0.05693199789140749,Ascension SE Wisconsin Hospital - St. Joseph Campus,ChIJf5KBSnkbBYgRVyoSVsssyrQ,"5000 W Chambers St, Milwaukee, WI 53210, United States",43.0743635,-87.97653720000001
Ascension Seton Edgar B. Davis,23,Luling,TX,1.6375903297858363,0.07119957955590593,Seton Heart Institute – Ascension Seton Edgar B. Davis,ChIJ7WqfCdhOQ4YRE7X5IWhQxZs,"130 Hays St, Luling, TX 78648, United States",29.6730686,-97.6546884
Ascension Seton Hays,142,Kyle,TX,10.110340296938642,0.07119957955590593,Ascension Seton Hays,ChIJJ6YSCwxUW4YRXiGQTRPiFD8,"6001 Kyle Pkwy, Kyle, TX 78640, United States",30.0090825,-97.85301729999999
Ascension Seton Highland Lakes,25,Burnet,TX,1.7799894888976482,0.07119957955590593,Ascension Seton Highland Lakes,ChIJsUqrwQ7kWoYRpqUySjTyoBI,"3201 S Water St, Burnet, TX 78611, United States",30.7330977,-98.23676479999999
Ascension Seton Medical Center Austin,430,Austin,TX,30.61581920903955,0.07119957955590593,Ascension Seton Medical Center Austin,ChIJ44CyyYbKRIYRc59df6kDbQ4,"1201 W 38th St, Austin, TX 78705, United States",30.3051893,-97.7463934
Ascension Seton Northwest,106,Austin,TX,7.5471554329260275,0.07119957955590593,Ascension Seton Northwest,ChIJyZZNsYnMRIYRCEk-CiHXHTI,"11113 Research Blvd, Austin, TX 78759, United States",30.4052568,-97.743911
Ascension Seton Shoal Creek,94,Austin,TX,6.692760478255157,0.07119957955590593,Ascension Seton Shoal Creek,ChIJcxlCR4TKRIYR1Dnyk2bl7yU,"3501 Mills Ave, Austin, TX 78731, United States",30.306105,-97.748421
Ascension Seton Smithville,8,Smithville,TX,0.5695966364472475,0.07119957955590593,Ascension Seton Smithville,ChIJDf3Az6yBRIYRgtBTIyrLBT8,"1201 Hill Rd, Smithville, TX 78957, United States",30.0040284,-97.1360394
Ascension Seton Southwest,28,Austin,TX,1.993588227565366,0.07119957955590593,Ascension Seton Southwest,ChIJdUVrY2tJW4YRMQbbS5RhjjY,"7900 Farm to Market Rd 1826, Austin, TX 78737, United States",30.2268407,-97.89151679999999
Ascension Seton Williamson,119,Round Rock,TX,8.472749967152806,0.07119957955590593,Ascension Seton Williamson,ChIJdRaZbNfQRIYR3_6ZdN4wuBQ,"201 Seton Pkwy, Round Rock, TX 78665, United States",30.5671043,-97.6512127
Ascension St. Francis Hospital,153,Milwaukee,WI,8.710595677385347,0.05693199789140749,Ascension St. Francis Hospital,ChIJs5RdY7QQBYgRT41QpnJjuWQ,"3237 S 16th St, Milwaukee, WI 53215, United States",42.9854782,-87.9355234
Ascension St. Joseph Hospital,47,Tawas City,MI,3.0807367449783523,0.06554759031868834,Ascension St. Joseph Hospital,ChIJhWgxh-ErJ4gRwDaBfgX39Z8,"200 Hemlock Rd, Tawas City, MI 48763, United States",44.2756183,-83.5089442
Ascension St. Mary's Hospital,204,Saginaw,MI,13.371708425012422,0.06554759031868834,Ascension St. Mary's Hospital,ChIJXQbuw3HCI4gRX9kip1OaN8M,"800 S Washington Ave, Saginaw, MI 48601, United States",43.4247494,-83.9387848
Ascension St. Vincent Carmel,107,Carmel,IN,8.15069343821155,0.07617470503001449,Ascension St. Vincent Carmel,ChIJU4WS3DmsFIgRZkY0WK2nv60,"13500 N Meridian St, Carmel, IN 46032, United States",39.9821468,-86.1442253
Ascension St. Vincent Dunn,25,Bedford,IN,1.904367625750362,0.07617470503001449,Maternity Care and Birthing at Ascension St. Vincent Dunn,ChIJ7UYoSbwTbIgRgPRTPoD7O6Y,"1600 23rd St Third Floor, Bedford, IN 47421, United States",38.853322,-86.49452699999999
Ascension St. Vincent Jennings,25,North Vernon,IN,1.904367625750362,0.07617470503001449,St. Vincent Jennings Hospital,ChIJNcDeJnWza4gRZx1oiDTQ0SQ,"301 Henry St, North Vernon, IN 47265, United States",39.0100135,-85.640633
Ascension St. Vincent Kokomo,129,Kokomo,IN,9.826536948871867,0.07617470503001449,Emergency Department - St. Vincent Kokomo Hospital,ChIJy4S5Gh-EFIgRzpehQNo4Efk,"1907 W Sycamore St, Kokomo, IN 46901, United States",40.4859391,-86.1568102
Ascension St. Vincent Mercy,25,Elwood,IN,1.904367625750362,0.07617470503001449,St. Vincent Mercy Hospital,ChIJFdgXV3_pFIgRCnxMe0tNeB8,"1331 S A St, Elwood, IN 46036, United States",40.2752881,-85.84214759999999
Ascension St. Vincent Randolph,25,Winchester,IN,1.904367625750362,0.07617470503001449,Ascension St. Vincent Randolph,ChIJyXxqL6VfFYgR-SPC6c7VOTI,"473 SE Greenville Ave, Winchester, IN 47394, United States",40.1690952,-84.968994
Ascension St. Vincent Salem,25,Salem,IN,1.904367625750362,0.07617470503001449,St. Vincent Salem Hospital,ChIJx20Hljj9a4gR0zrzNORw5U4,"911 N Shelby St, Salem, IN 47167, United States",38.6131698,-86.1071984
Ascension St. Vincent Warrick,35,Boonville,IN,2.666114676050507,0.07617470503001449,Ascension Medical Group-St. Vincent - Warrick Urology,ChIJbxuOZfA3bogRVeV8_oS6H64,"1116 Millis Ave, Boonville, IN 47601, United States",38.0418913,-87.26280919999999
Ascension St. Vincent Williamsport,16,Williamsport,IN,1.2187952804802318,0.07617470503001449,St. Vincent Williamsport Hospital,ChIJUUfuf-SVEogRfYAaxMiXaxQ,"412 N Monroe St, Williamsport, IN 47993, United States",40.2905485,-87.2965648
Ascension St. Vincent's Clay County Hospital,106,Middleburg,FL,7.318841276711714,0.06904567242180862,St. Vincent's Medical Center Clay County: Emergency Room,ChIJGb9KztzC5YgRkLPXPcMz3kU,"1670 St Vincent's Way, Middleburg, FL 32068, United States",30.1084599,-81.8325969
Ascension St. Vincent's Riverside Hospital,479,Jacksonville,FL,33.072877090046326,0.06904567242180862,Ascension St. Vincent's Riverside Hospital,ChIJ63i_YIC35YgRNLGeqWjKD60,"1 Shircliff Way, Jacksonville, FL 32204, United States",30.3076217,-81.6899598
Ascension St. Vincent's Southside Hospital,260,Jacksonville,FL,17.951874829670242,0.06904567242180862,Ascension St. Vincent's Riverside Hospital,ChIJ63i_YIC35YgRNLGeqWjKD60,"1 Shircliff Way, Jacksonville, FL 32204, United States",30.3076217,-81.6899598
Ascension Standish Hospital,54,Standish,MI,3.5395698772091704,0.06554759031868834,Ascension Standish Hospital,ChIJfb5vhK4VIYgRaCSUguk4IPU,"805 W Cedar St, Standish, MI 48658, United States",43.9821919,-83.9687896
Ascension Via Christi Behavioral Health Center,0,Wichita,KS,0.0,0.05421940928270042,Ascension Via Christi Behavioral Health Center,ChIJA0LwwZz8uocRvuuLBi_-vO4,"3600 E Harry St, Wichita, KS 67218, United States",37.6662262,-97.29302659999999
Ascension Via Christi Hospital in Manhattan,94,Manhattan,KS,5.09662447257384,0.05421940928270042,Ascension Via Christi Hospital in Manhattan,ChIJ4Qv0_sHNvYcRWka_Tn9LSmc,"1823 College Ave, Manhattan, KS 66502, United States",39.2011158,-96.59927909999999
Ascension Via Christi Hospital in Pittsburg,78,Pittsburg,KS,4.229113924050633,0.05421940928270042,Via Christi Hospital in Pittsburg: Emergency Room,ChIJGdCOMCrDx4cROiTCheJIWf8,"1 Mt Carmel Way, Pittsburg, KS 66762, United States",37.3802192,-94.6850592
Ascension Via Christi Rehabilitation Hospital,58,Wichita,KS,3.1447257383966245,0.05421940928270042,Ascension Via Christi Rehabilitation Hospital,ChIJua_CJN38uocRdetIPFmZMxc,"1151 N Rock Rd, Wichita, KS 67206, United States",37.7039227,-97.24602
Ascension Via Christi St. Francis,658,Wichita,KS,35.67637130801688,0.05421940928270042,Ascension Via Christi St. Francis,ChIJEQufU8jjuocRS-oyiRWWt-M,"929 N St Francis St, Wichita, KS 67214, United States",37.6994869,-97.3322209
Ascension Via Christi St. Joseph,0,Wichita,KS,0.0,0.05421940928270042,Ascension Via Christi St. Joseph,ChIJlflZ053kuocR9_8UO7_XXTA,"3600 E Harry St, Wichita, KS 67218, United States",37.6661809,-97.29319629999999
Ascension Via Christi St. Teresa,57,Wichita,KS,3.090506329113924,0.05421940928270042,Ascension Via Christi St. Teresa,ChIJJVzCgkXfuocRa9LjZZEvTdg,"14800 St Teresa St, Wichita, KS 67235, United States",37.7257513,-97.5132964
Ashe Memorial Hospital,25,Jefferson,NC,1.6787881071711197,0.06715152428684479,Ashe Memorial Hospital,ChIJdwoHdE-sUYgRqu1r8krW8nE,"200 Hospital Ave, Jefferson, NC 28640, United States",36.4235315,-81.4578411
Asheville Specialty Hospital,34,Asheville,NC,2.2831518257527232,0.06715152428684479,Asheville Specialty Hospital,ChIJDaibDuPzWYgR4JYyPtIfW9Q,"428 Biltmore Ave 4th Floor, Asheville, NC 28801, United States",35.581238,-82.5501239
Ashford Presbyterian Community Hospital,175,San Juan,PR,0.0,0.0,Ashford Presbyterian Community Hospital,ChIJQ3g_ZkZvA4wRkj3o-1-wPnI,"1451 Ave Dr Ashford, San Juan, 00907, Puerto Rico",18.4560019,-66.06547119999999
Ashland Health Center,25,Ashland,KS,1.3554852320675106,0.05421940928270042,Ashland Health Center,ChIJ2wLXmf42pocRmc6aDUlxvMs,"625 Kentucky St, Ashland, KS 67831, United States",37.1902572,-99.7797746
Ashley County Medical Center,35,Crossett,AR,2.039116428900138,0.0582604693971468,Ashley County Medical Center,ChIJIxQRKyfXLYYR9SucDnKUfRI,"1015 Unity Rd, Crossett, AR 71635, United States",33.13819180000001,-91.93892729999999
Ashley Medical Center,60,Ashley,ND,2.8869286287089015,0.04811547714514836,AMC Clinic,ChIJ2WiGBPZD0VIRauM3s3xVSM0,"612 Center Ave N, Ashley, ND 58413, United States",46.0402064,-99.3719753
Ashley Regional Medical Center,39,Vernal,UT,3.115787801778908,0.07989199491740788,Ashley Regional Medical Center,ChIJ9___QDdiRYcRP97iXkhPHjk,"150 W 100 N, Vernal, UT 84078, United States",40.4578193,-109.5316467
Ashtabula County Medical Center,137,Ashtabula,OH,10.554824685223872,0.07704251595053921,Ashtabula County Medical Center,ChIJ17Asme4fMogRx3FYu394Dd8,"2420 Lake Ave, Ashtabula, OH 44004, United States",41.8806844,-80.7952439
Aspen Mountain Medical Center,0,Rock Springs,WY,0.0,0.052965142598460836,Aspen Mountain Medical Center,ChIJqyKe6S9hWocRJ3Q40Go7SKA,"4401 College Dr, Rock Springs, WY 82901, United States",41.60267289999999,-109.24689
Aspen Valley Hospital,25,Aspen,CO,1.9049407444500084,0.07619762977800032,Aspen Valley Hospital,ChIJDazwcnM5QIcRA7V0krQFvlI,"401 Castle Creek Rd, Aspen, CO 81611, United States",39.1905965,-106.8392309
Aspire Health Partners -Princeton Plaza,90,Orlando,FL,6.2141105179627765,0.06904567242180862,Aspire Health Partners,ChIJ3w1dbfN554gRo2Psj6ixfM4,"1800 Mercy Dr, Orlando, FL 32808, United States",28.5671666,-81.4349501
Aspire Hospital,30,Conroe,TX,2.1359873866771784,0.07119957955590593,Aspire Behavioral Health Hospital Conroe,ChIJp8v4CNc7R4YRB4Rhul2ICzE,"2006 S Loop 336 W #500, Conroe, TX 77304, United States",30.2845746,-95.4799938
Aspirus Iron River Hospital,25,Iron River,MI,1.6386897579672086,0.06554759031868834,Aspirus Iron River Hospital,ChIJuRqh7wn7U00RuHr3xeoR2W8,"1400 W Ice Lake Rd, Iron River, MI 49935, United States",46.099593,-88.61907500000001
Aspirus Ironwood Hospital,25,Ironwood,MI,1.6386897579672086,0.06554759031868834,Aspirus Ironwood Hospital,ChIJB0m1jR3nqVIRNglPab68kGY,"10561 Grandview Lane, Ironwood, MI 49938, United States",46.4807284,-90.1066395
Aspirus Keweenaw Hospital,25,Laurium,MI,1.6386897579672086,0.06554759031868834,Aspirus Keweenaw Hospital,ChIJdczuUIG7UE0R8O33NEqoI-w,"205 Osceola St, Laurium, MI 49913, United States",47.2389105,-88.4434608
